[
  {
    "id": "7F533208",
    "name": "Apteka Drohobycka",
    "lat": 51.095178849405066,
    "lng": 16.940980693710344,
    "address": "ul.Kunickiego St. 33a",
    "categoryIds": [
      "62B779E5"
    ]
  },
  {
    "id": "44ED3D92",
    "name": "Apteka przy Polomarkecie",
    "lat": 51.113219733633215,
    "lng": 16.954230806243913,
    "address": "ul.Budziszyńska 107",
    "categoryIds": [
      "62B779E5"
    ]
  },
  {
    "id": "56530E26",
    "name": "Apteka Acer",
    "lat": 51.13021672101954,
    "lng": 17.04347326458742,
    "address": "ul. Zakładowa 11e",
    "categoryIds": [
      "62B779E5"
    ]
  },
  {
    "id": "30A16683",
    "name": "Apteka Przy Przychodni",
    "lat": 51.122772891047255,
    "lng": 17.036365410697954,
    "address": "ul. Św. Wincentego 9/1c",
    "categoryIds": [
      "62B779E5"
    ]
  },
  {
    "id": "E0CFAAE1",
    "name": "Apteka Lege Artis",
    "lat": 51.17739029333153,
    "lng": 17.000085851562517,
    "address": "ul. Szałwiowa 23/4a",
    "categoryIds": [
      "62B779E5"
    ]
  },
  {
    "id": "CE0512EF",
    "name": "Apteka Ogrodowa",
    "lat": 51.14753051462912,
    "lng": 16.86389400662233,
    "address": "ul. Pawła Eluarda 7",
    "categoryIds": [
      "62B779E5"
    ]
  },
  {
    "id": "D8933BAB",
    "name": "Apteka Helvetia",
    "lat": 51.125203798736145,
    "lng": 16.97126283348848,
    "address": "Bulwar Ikara 20",
    "categoryIds": [
      "62B779E5"
    ]
  },
  {
    "id": "426D9C71",
    "name": "Hospicjum Bonifratrów im. św. Jana Bożego",
    "lat": 51.157974888312104,
    "lng": 17.033055564773576,
    "address": "ul. Poświęcka 8a",
    "categoryIds": [
      "62B779E5"
    ]
  },
  {
    "id": "3269A8FD",
    "name": "Apteka Dbam o Zdrowie",
    "lat": 51.05377543794696,
    "lng": 16.978928586853044,
    "address": "al. Karkonoska 85",
    "categoryIds": [
      "62B779E5"
    ]
  },
  {
    "id": "003B468C",
    "name": "Olimpia",
    "lat": 51.11345547154275,
    "lng": 17.113285800827043,
    "address": "ul. Marca Polo 35a",
    "categoryIds": [
      "62B779E5",
      "62B779E5"
    ]
  },
  {
    "id": "C2969F0B",
    "name": "Aktywna",
    "lat": 51.159239896769414,
    "lng": 17.139035007370012,
    "address": "ul. Zatorska 55a",
    "categoryIds": [
      "62B779E5",
      "62B779E5"
    ]
  },
  {
    "id": "3F9DAA45",
    "name": "Biogenes",
    "lat": 51.092941774228564,
    "lng": 16.991695901763933,
    "address": "pl. Bzowy 1",
    "categoryIds": [
      "62B779E5",
      "62B779E5"
    ]
  },
  {
    "id": "BA417AFE",
    "name": "Apteka Da Vinci",
    "lat": 51.12695114503796,
    "lng": 16.965850135696428,
    "address": "ul. Bulwar Dedala 28A",
    "categoryIds": [
      "62B779E5",
      "62B779E5"
    ]
  },
  {
    "id": "5268F63C",
    "name": "MAK",
    "lat": 51.12229140800278,
    "lng": 17.02776624859621,
    "address": "pl. Strzelecki 24",
    "categoryIds": [
      "62B779E5",
      "62B779E5"
    ]
  },
  {
    "id": "94F4D34F",
    "name": "Apteka Ziko",
    "lat": 51.10854513931466,
    "lng": 17.03544273079683,
    "address": "ul. Oławska 12",
    "categoryIds": [
      "62B779E5",
      "62B779E5"
    ]
  },
  {
    "id": "C8EB4D67",
    "name": "Apteka \"Białowieska\"",
    "lat": 51.12592092573616,
    "lng": 16.991331121337907,
    "address": "ul. Białowieska 74 a",
    "categoryIds": [
      "62B779E5",
      "62B779E5"
    ]
  },
  {
    "id": "D84BF47D",
    "name": "Prima",
    "lat": 51.11324667516951,
    "lng": 16.954166433227556,
    "address": "ul. Budziszyńska 107",
    "categoryIds": [
      "62B779E5",
      "62B779E5"
    ]
  },
  {
    "id": "0C1886FE",
    "name": "Na Wojnowie",
    "lat": 51.10675331066695,
    "lng": 17.14359476269533,
    "address": "ul. Strachocińska 84",
    "categoryIds": [
      "62B779E5"
    ]
  },
  {
    "id": "BAFBBC02",
    "name": "Dbam O Zdrowie",
    "lat": 51.14203819467263,
    "lng": 17.08814813793947,
    "address": "ul. Krzywoustego 126",
    "categoryIds": [
      "62B779E5"
    ]
  },
  {
    "id": "D1DF167F",
    "name": "Silesia 3",
    "lat": 51.12884318729824,
    "lng": 17.03319503964235,
    "address": "ul. Kraszewskiego 21",
    "categoryIds": [
      "62B779E5"
    ]
  },
  {
    "id": "09B15F21",
    "name": "Lege Artis",
    "lat": 51.15430078411713,
    "lng": 17.044331571472185,
    "address": "ul. Kamieńskiego 213/U1",
    "categoryIds": [
      "62B779E5",
      "62B779E5"
    ]
  },
  {
    "id": "1DB2A375",
    "name": "Niezapominajka",
    "lat": 51.11216900146817,
    "lng": 16.960904142272966,
    "address": "ul. Strzegomska 200",
    "categoryIds": [
      "62B779E5",
      "62B779E5"
    ]
  },
  {
    "id": "CA1FBFBD",
    "name": "Katedralna",
    "lat": 51.11691057776727,
    "lng": 17.052077791107195,
    "address": "ul. Sienkiewicza 54-56",
    "categoryIds": [
      "62B779E5",
      "62B779E5"
    ]
  },
  {
    "id": "7510EA68",
    "name": "Dr. Max",
    "lat": 51.120857030168864,
    "lng": 17.031263849151628,
    "address": "ul. Pomorska 51-53",
    "categoryIds": [
      "62B779E5",
      "62B779E5"
    ]
  },
  {
    "id": "2523ABFC",
    "name": "Dbam O Zdrowie",
    "lat": 51.09848709654207,
    "lng": 17.005106946838396,
    "address": "ul. Ołowiana 11",
    "categoryIds": [
      "62B779E5"
    ]
  },
  {
    "id": "85107F7C",
    "name": "Ars Medica",
    "lat": 51.11866160507806,
    "lng": 16.998369237792986,
    "address": "ul. Legnicka 55",
    "categoryIds": [
      "62B779E5",
      "62B779E5"
    ]
  },
  {
    "id": "EF919B6A",
    "name": "Dbam O Zdrowie",
    "lat": 51.12447992685798,
    "lng": 16.98274805249025,
    "address": "ul. Kwiska 5/7",
    "categoryIds": [
      "62B779E5"
    ]
  },
  {
    "id": "821DDB0F",
    "name": "Dbam O Zdrowie",
    "lat": 51.13550175160881,
    "lng": 16.973092100036638,
    "address": "ul. Kolista 10",
    "categoryIds": [
      "62B779E5"
    ]
  },
  {
    "id": "A57D332A",
    "name": "Przy Weigla",
    "lat": 51.076726483158225,
    "lng": 17.019912740600603,
    "address": "ul. Weigla 10",
    "categoryIds": [
      "62B779E5"
    ]
  },
  {
    "id": "A6A58BD5",
    "name": "Dbam O Zdrowie",
    "lat": 51.07500083081712,
    "lng": 17.004549047363298,
    "address": "ul. Wawrzyniaka 2",
    "categoryIds": [
      "62B779E5"
    ]
  },
  {
    "id": "ECFF4012",
    "name": "Calendula",
    "lat": 51.06378252186828,
    "lng": 16.98377802075197,
    "address": "ul. Wałbrzyska 3c",
    "categoryIds": [
      "62B779E5",
      "62B779E5"
    ]
  },
  {
    "id": "56750C54",
    "name": "Dbam O Zdrowie",
    "lat": 51.10618745560938,
    "lng": 16.94708540142824,
    "address": "ul. Graniczna 2a",
    "categoryIds": [
      "62B779E5"
    ]
  },
  {
    "id": "7292B486",
    "name": "Przyjaźni",
    "lat": 51.06712672534701,
    "lng": 16.997339269531267,
    "address": "ul. Przyjaźni 109",
    "categoryIds": [
      "62B779E5",
      "62B779E5"
    ]
  },
  {
    "id": "62ED439B",
    "name": "Ziko",
    "lat": 51.09592002514269,
    "lng": 17.056734105957048,
    "address": "ul. Krakowska 1",
    "categoryIds": [
      "62B779E5",
      "62B779E5"
    ]
  },
  {
    "id": "7F0ECAE9",
    "name": "Aronia",
    "lat": 51.09304958756264,
    "lng": 17.025384446990984,
    "address": "ul. Komandorska 147",
    "categoryIds": [
      "62B779E5",
      "62B779E5"
    ]
  },
  {
    "id": "8FC27650",
    "name": "Wratislavia",
    "lat": 51.09247008793671,
    "lng": 17.035834333313005,
    "address": "ul. Ciepła 9-11",
    "categoryIds": [
      "62B779E5",
      "62B779E5"
    ]
  },
  {
    "id": "5D363F91",
    "name": "Medicover",
    "lat": 51.09947750330965,
    "lng": 17.041627904785173,
    "address": "ul. Dąbrowskiego 44",
    "categoryIds": [
      "62B779E5",
      "62B779E5"
    ]
  },
  {
    "id": "8BFC9041",
    "name": "Przy Borowskiej",
    "lat": 51.07694218517586,
    "lng": 17.034289380920427,
    "address": "ul. Borowska 188a",
    "categoryIds": [
      "62B779E5",
      "62B779E5"
    ]
  },
  {
    "id": "FED6201D",
    "name": "Dolnośląska Grupa Apteczna DGA 23",
    "lat": 51.08441024736045,
    "lng": 17.047335645568864,
    "address": "ul. Bardzka 1a",
    "categoryIds": [
      "62B779E5",
      "62B779E5"
    ]
  },
  {
    "id": "27EC7556",
    "name": "Dom Leków",
    "lat": 51.09996259276117,
    "lng": 17.026607534301775,
    "address": "pl. Powstańców Śląskich 1/102",
    "categoryIds": [
      "62B779E5",
      "62B779E5"
    ]
  },
  {
    "id": "F628C4D3",
    "name": "Dom leków",
    "lat": 51.10562159362441,
    "lng": 17.022573491943376,
    "address": "ul. J. Piłsudskiego 12",
    "categoryIds": [
      "62B779E5",
      "62B779E5"
    ]
  },
  {
    "id": "8C14819F",
    "name": "Dbam O Zdrowie",
    "lat": 51.11278866691729,
    "lng": 17.05967380703737,
    "address": "pl. Grunwaldzki 22",
    "categoryIds": [
      "62B779E5"
    ]
  },
  {
    "id": "6254D0DF",
    "name": "Braniborska",
    "lat": 51.11052550068604,
    "lng": 17.01450540722658,
    "address": "ul. Braniborska 14",
    "categoryIds": [
      "62B779E5"
    ]
  },
  {
    "id": "218DDCEA",
    "name": "Ziko",
    "lat": 51.1276850781057,
    "lng": 17.049266836059587,
    "address": "ul. Ustronie 1/3",
    "categoryIds": [
      "62B779E5",
      "62B779E5"
    ]
  },
  {
    "id": "CEC52134",
    "name": "Silesia",
    "lat": 51.10020513557829,
    "lng": 17.039310476196306,
    "address": "ul. Dworcowa 33-35",
    "categoryIds": [
      "62B779E5",
      "62B779E5"
    ]
  },
  {
    "id": "BD6ADE2F",
    "name": "Dbam O Zdrowie",
    "lat": 51.121409237236556,
    "lng": 17.015878698242204,
    "address": "ul. Długa 37/47",
    "categoryIds": [
      "62B779E5"
    ]
  },
  {
    "id": "79A8D766",
    "name": "Dbam O Zdrowie",
    "lat": 51.12421057628657,
    "lng": 17.033838769805925,
    "address": "pl. Powstańców Wielkopolskich 1",
    "categoryIds": [
      "62B779E5"
    ]
  },
  {
    "id": "882FAAAD",
    "name": "Dbam O Zdrowie",
    "lat": 51.10830264025391,
    "lng": 17.041134378326433,
    "address": "pl. Dominikański 3",
    "categoryIds": [
      "62B779E5"
    ]
  },
  {
    "id": "AF3D7FB0",
    "name": "Apteka „Arnika”",
    "lat": 51.06014138046798,
    "lng": 17.005300065887468,
    "address": "ul. Zwycięska 25-35/6",
    "categoryIds": [
      "62B779E5"
    ]
  },
  {
    "id": "5028C572",
    "name": "Apteka \"Malva\"",
    "lat": 51.12682321055726,
    "lng": 16.97649314106752,
    "address": "ul. Horbaczewskiego 4/6",
    "categoryIds": [
      "62B779E5"
    ]
  },
  {
    "id": "2A49FA9C",
    "name": "Arkadia",
    "lat": 51.1254462091086,
    "lng": 17.052367469680803,
    "address": "ul. Karola Miarki 3",
    "categoryIds": [
      "62B779E5",
      "62B779E5"
    ]
  },
  {
    "id": "63E41109",
    "name": "ZA FOSĄ",
    "lat": 51.106052727193735,
    "lng": 17.043516179931657,
    "address": "ul. Krasińskiego 34",
    "categoryIds": [
      "62B779E5"
    ]
  },
  {
    "id": "1E7B69C1",
    "name": "Apteka \"Pulsantis\"",
    "lat": 51.09497333948314,
    "lng": 16.97775914372255,
    "address": "ul. Ostrowskiego 3",
    "categoryIds": [
      "62B779E5",
      "62B779E5"
    ]
  },
  {
    "id": "07C92880",
    "name": "Apteka \"Rumiankowa\"",
    "lat": 51.14334402603642,
    "lng": 17.13129951657106,
    "address": "ul. Inflancka 39",
    "categoryIds": [
      "62B779E5",
      "62B779E5"
    ]
  },
  {
    "id": "2DDBDC57",
    "name": "Muchoborska",
    "lat": 51.10218585429028,
    "lng": 16.947750589263933,
    "address": "ul. Tyrmanda 5",
    "categoryIds": [
      "62B779E5",
      "62B779E5"
    ]
  },
  {
    "id": "6A8F3121",
    "name": "Apteka Krzemieniecka",
    "lat": 51.09719178764616,
    "lng": 16.949987551582353,
    "address": "ul.Krzemieniecka 125-127",
    "categoryIds": [
      "62B779E5",
      "62B779E5"
    ]
  },
  {
    "id": "DCFEF0A1",
    "name": "Apteka MILENIUM",
    "lat": 51.14972288508442,
    "lng": 16.942860922229784,
    "address": "ul. Fromborska 47",
    "categoryIds": [
      "62B779E5",
      "62B779E5"
    ]
  },
  {
    "id": "C127D26B",
    "name": "SŁONECZNA",
    "lat": 51.097567414117734,
    "lng": 17.018646737945573,
    "address": "ul. Grabskiego 3",
    "categoryIds": [
      "62B779E5",
      "62B779E5"
    ]
  },
  {
    "id": "060F4D3C",
    "name": "Promyk Słońca",
    "lat": 51.097139570271736,
    "lng": 17.031666180503862,
    "address": "ul. Swobodna 8a",
    "categoryIds": [
      "62B779E5",
      "62B779E5"
    ]
  },
  {
    "id": "CAAFFB23",
    "name": "LEGE ARTIS",
    "lat": 51.0952192774789,
    "lng": 17.036799928558366,
    "address": "ul. Joannitów 22",
    "categoryIds": [
      "62B779E5",
      "62B779E5"
    ]
  },
  {
    "id": "D6BC784F",
    "name": "Ziemowita",
    "lat": 51.11131021224418,
    "lng": 17.017407557380693,
    "address": "ul. Ziemowita 1-9",
    "categoryIds": [
      "62B779E5",
      "62B779E5"
    ]
  },
  {
    "id": "13BA4542",
    "name": "Ziko",
    "lat": 51.1016889983017,
    "lng": 17.029785951984422,
    "address": "ul. Świdnicka 48",
    "categoryIds": [
      "62B779E5"
    ]
  },
  {
    "id": "508C12DD",
    "name": "Rubus",
    "lat": 51.12787865942522,
    "lng": 17.03420891464998,
    "address": "ul. Siemieńskiego 18",
    "categoryIds": [
      "62B779E5",
      "62B779E5"
    ]
  },
  {
    "id": "7FA84C02",
    "name": "Dr. Max",
    "lat": 51.10987886140553,
    "lng": 17.027143976104753,
    "address": "ul. Psie Budy 3/4",
    "categoryIds": [
      "62B779E5",
      "62B779E5"
    ]
  },
  {
    "id": "F8DC1A02",
    "name": "NA RONDZIE",
    "lat": 51.06692109077409,
    "lng": 17.078095218551653,
    "address": "ul. Pionierów 7",
    "categoryIds": [
      "62B779E5",
      "62B779E5"
    ]
  },
  {
    "id": "69DC979C",
    "name": "WRATISLAVIA",
    "lat": 51.092497883869484,
    "lng": 17.035798123491304,
    "address": "ul. Ciepła 9-11",
    "categoryIds": [
      "62B779E5",
      "62B779E5"
    ]
  },
  {
    "id": "1E22367A",
    "name": "SILESIA",
    "lat": 51.11069599977024,
    "lng": 17.05590932668497,
    "address": "pl. Grunwaldzki 8",
    "categoryIds": [
      "62B779E5",
      "62B779E5"
    ]
  },
  {
    "id": "2627C993",
    "name": "DBAM O ZDROWIE",
    "lat": 51.11786565353445,
    "lng": 17.000934100163477,
    "address": "ul. Słubicka 18",
    "categoryIds": [
      "62B779E5",
      "62B779E5"
    ]
  },
  {
    "id": "BB060592",
    "name": "Werbena",
    "lat": 51.111104774025065,
    "lng": 16.96156933010866,
    "address": "ul. Szwedzka 1a",
    "categoryIds": [
      "62B779E5",
      "62B779E5"
    ]
  },
  {
    "id": "CF9B1111",
    "name": "Nova",
    "lat": 51.11814977318967,
    "lng": 16.95429517926027,
    "address": "ul. Rogowska 52",
    "categoryIds": [
      "62B779E5",
      "62B779E5"
    ]
  },
  {
    "id": "48E29FDA",
    "name": "VITRUM",
    "lat": 51.116479545481816,
    "lng": 17.00246765316774,
    "address": "ul. Głogowska 6",
    "categoryIds": [
      "62B779E5",
      "62B779E5"
    ]
  },
  {
    "id": "68006238",
    "name": "DGA 12",
    "lat": 51.099376442366584,
    "lng": 17.02770187557985,
    "address": "ul. Powstańców Ślaśkich 2-4 (CH Arkady Wrocławskie)",
    "categoryIds": [
      "62B779E5",
      "62B779E5"
    ]
  },
  {
    "id": "2144BA0A",
    "name": "POD JEMIOŁĄ",
    "lat": 51.13751461692844,
    "lng": 17.055832883728044,
    "address": "Pl. Piłsudskiego 3",
    "categoryIds": [
      "62B779E5",
      "62B779E5"
    ]
  },
  {
    "id": "D07E0935",
    "name": "Punkt Selektywnej Zbiórki Opadów Komunalnych",
    "lat": 51.196824418360144,
    "lng": 16.90584375561525,
    "address": "ul. Janowska 51",
    "categoryIds": [
      "62B779E5",
      "DD95DF21",
      "97113F89",
      "E2103836",
      "5A6A547F",
      "E4060C87"
    ]
  },
  {
    "id": "6FD97FC5",
    "name": "RUMIANKOWA",
    "lat": 51.12197827298002,
    "lng": 16.92208184899141,
    "address": "ul. Rumiankowa 53",
    "categoryIds": [
      "62B779E5"
    ]
  },
  {
    "id": "9F598E4D",
    "name": "OGRODOWA",
    "lat": 51.14687850301323,
    "lng": 16.866383474751387,
    "address": "ul. Eluarda 7",
    "categoryIds": [
      "62B779E5"
    ]
  },
  {
    "id": "BC21FB4A",
    "name": "ZŁOTNICKA",
    "lat": 51.14321610076856,
    "lng": 16.889715353480142,
    "address": "ul. Złotnicka 4G",
    "categoryIds": [
      "62B779E5",
      "62B779E5"
    ]
  },
  {
    "id": "71487723",
    "name": "POD ŚW. ANTONIM",
    "lat": 51.14571482572356,
    "lng": 16.867794921873383,
    "address": "ul. Średzka 33",
    "categoryIds": [
      "62B779E5",
      "62B779E5"
    ]
  },
  {
    "id": "DF6DC12B",
    "name": "SIELSKA",
    "lat": 51.13989425613863,
    "lng": 16.963484172711105,
    "address": "ul. Sielska 3-9",
    "categoryIds": [
      "62B779E5",
      "62B779E5"
    ]
  },
  {
    "id": "520C79C1",
    "name": "SARBINOWSKA",
    "lat": 51.127227750732935,
    "lng": 16.945823761227302,
    "address": "ul. Sarbinowska 15-17",
    "categoryIds": [
      "62B779E5",
      "62B779E5"
    ]
  },
  {
    "id": "6FE8DC12",
    "name": "APTEKA OGÓLNODOSTĘPNA",
    "lat": 51.12934143464411,
    "lng": 16.970141670120256,
    "address": "ul. Lotnicza 24",
    "categoryIds": [
      "62B779E5",
      "62B779E5"
    ]
  },
  {
    "id": "885C3152",
    "name": "NA DOBRE I NA ZŁE",
    "lat": 51.14523371400481,
    "lng": 16.948228022468584,
    "address": "ul. Pilczycka 196E",
    "categoryIds": [
      "62B779E5",
      "62B779E5"
    ]
  },
  {
    "id": "0ACB1D30",
    "name": "TĘCZOWA",
    "lat": 51.130358111877705,
    "lng": 16.9655389994507,
    "address": "ul. Bajana 1",
    "categoryIds": [
      "62B779E5",
      "62B779E5"
    ]
  },
  {
    "id": "81F05599",
    "name": "IKAR",
    "lat": 51.12645623863349,
    "lng": 16.971119335306184,
    "address": "ul. Bulwar Ikara 29a/1",
    "categoryIds": [
      "62B779E5",
      "62B779E5"
    ]
  },
  {
    "id": "CF99C25E",
    "name": "RADIX",
    "lat": 51.12644950517646,
    "lng": 16.971115311992662,
    "address": "ul. Bulwar Ikara 21",
    "categoryIds": [
      "62B779E5",
      "62B779E5"
    ]
  },
  {
    "id": "05F55F90",
    "name": "LEGE ARTIS NOWODWORSKA",
    "lat": 51.11452974764522,
    "lng": 16.959251901519792,
    "address": "ul. Gubińska 15",
    "categoryIds": [
      "62B779E5"
    ]
  },
  {
    "id": "5FD076DE",
    "name": "APTEKA POD WĘŻEM",
    "lat": 51.11731466688297,
    "lng": 16.954359552276628,
    "address": "ul. Rogowska 42",
    "categoryIds": [
      "62B779E5",
      "62B779E5"
    ]
  },
  {
    "id": "252E8FB7",
    "name": "GRECKA",
    "lat": 51.10886032461076,
    "lng": 16.961809745910386,
    "address": "ul. Grecka 26/28",
    "categoryIds": [
      "62B779E5"
    ]
  },
  {
    "id": "7D991717",
    "name": "MAGNOLIA",
    "lat": 51.11717864439074,
    "lng": 16.951583397250033,
    "address": "ul. Zemska 14a",
    "categoryIds": [
      "62B779E5",
      "62B779E5"
    ]
  },
  {
    "id": "45E914D7",
    "name": "POD AKACJAMI",
    "lat": 51.11425192001306,
    "lng": 17.002153834713,
    "address": "ul. Bolesławiecka 2",
    "categoryIds": [
      "62B779E5"
    ]
  },
  {
    "id": "A9EBAC83",
    "name": "HETMAŃSKA",
    "lat": 51.1159739960987,
    "lng": 17.007794131052947,
    "address": "ul. Czarnieckiego 13",
    "categoryIds": [
      "62B779E5",
      "62B779E5"
    ]
  },
  {
    "id": "4B6CC9D7",
    "name": "ORCHIDEA",
    "lat": 51.10039377911193,
    "lng": 16.950647375000017,
    "address": "ul. M. Hłaski 42",
    "categoryIds": [
      "62B779E5",
      "62B779E5"
    ]
  },
  {
    "id": "81B4E107",
    "name": "MNISZEK",
    "lat": 51.1004964597924,
    "lng": 17.00682092995862,
    "address": "ul. Grabiszyńska 94",
    "categoryIds": [
      "62B779E5",
      "62B779E5"
    ]
  },
  {
    "id": "808736D5",
    "name": "OSTROBRAMSKA",
    "lat": 51.100161343219355,
    "lng": 17.00151815117647,
    "address": "ul. Grabiszyńska 133",
    "categoryIds": [
      "62B779E5"
    ]
  },
  {
    "id": "9B53FC89",
    "name": "HIBISKUS",
    "lat": 51.09543857752348,
    "lng": 17.00838624727794,
    "address": "ul. Jemiołowa 50-54",
    "categoryIds": [
      "62B779E5"
    ]
  },
  {
    "id": "6E3F2B5C",
    "name": "KRZYCKA",
    "lat": 51.068663899115975,
    "lng": 16.99904515446474,
    "address": "ul. Przyjaźni 91",
    "categoryIds": [
      "62B779E5",
      "62B779E5"
    ]
  },
  {
    "id": "08E9BB2C",
    "name": "ANTIDOTUM",
    "lat": 51.06616013234856,
    "lng": 16.994613168946557,
    "address": "ul. Przyjaźni 34e/1u",
    "categoryIds": [
      "62B779E5",
      "62B779E5"
    ]
  },
  {
    "id": "8A11C5C5",
    "name": "Na zdrowie",
    "lat": 51.075946240119386,
    "lng": 16.959466478240984,
    "address": "ul. Balzaka 14",
    "categoryIds": [
      "62B779E5",
      "62B779E5"
    ]
  },
  {
    "id": "0546EB38",
    "name": "ALPEJSKA",
    "lat": 51.07807010101467,
    "lng": 16.963799097799324,
    "address": "ul. Solskiego 6",
    "categoryIds": [
      "62B779E5",
      "62B779E5"
    ]
  },
  {
    "id": "749AD484",
    "name": "CZEKOLADOWA",
    "lat": 51.05931245047063,
    "lng": 16.9739410273163,
    "address": "ul. Czekoladowa 58",
    "categoryIds": [
      "62B779E5",
      "62B779E5"
    ]
  },
  {
    "id": "9118C0B9",
    "name": "RODZINNA",
    "lat": 51.05668314597311,
    "lng": 17.024861161565354,
    "address": "ul. Nenckiego 136A",
    "categoryIds": [
      "62B779E5",
      "62B779E5"
    ]
  },
  {
    "id": "624ED5A5",
    "name": "OŁTASZYŃSKA",
    "lat": 51.056907245465965,
    "lng": 17.02617202501915,
    "address": "ul. Uczniowska 37",
    "categoryIds": [
      "62B779E5",
      "62B779E5"
    ]
  },
  {
    "id": "E3ED5FF5",
    "name": "HIPOKRATES",
    "lat": 51.091485953451816,
    "lng": 17.040233407329765,
    "address": "ul. Gajowa 31",
    "categoryIds": [
      "62B779E5",
      "62B779E5"
    ]
  },
  {
    "id": "A5E095F8",
    "name": "JANTAROWA",
    "lat": 51.094720662097785,
    "lng": 17.010841509712236,
    "address": "ul. Gajowicka 96",
    "categoryIds": [
      "62B779E5",
      "62B779E5"
    ]
  },
  {
    "id": "EC7D9E81",
    "name": "RÓŻA WIATRÓW",
    "lat": 51.07280398871303,
    "lng": 16.99143198426941,
    "address": "ul. Róży Wiatrów 9b",
    "categoryIds": [
      "62B779E5"
    ]
  },
  {
    "id": "4DB31054",
    "name": "ARKA",
    "lat": 51.09764063473343,
    "lng": 17.013036512549434,
    "address": "ul. Skwierzyńska 28b",
    "categoryIds": [
      "62B779E5",
      "62B779E5"
    ]
  },
  {
    "id": "35F5C045",
    "name": "POD JAWORAMI",
    "lat": 51.080744049768974,
    "lng": 17.015924766367107,
    "address": "ul. Sudecka 147b",
    "categoryIds": [
      "62B779E5"
    ]
  },
  {
    "id": "07132856",
    "name": "WRATISLAVIA",
    "lat": 51.08807784004935,
    "lng": 17.017289251275088,
    "address": "ul. Sztabowa 76",
    "categoryIds": [
      "62B779E5",
      "62B779E5"
    ]
  },
  {
    "id": "986DF6F7",
    "name": "AGAT",
    "lat": 51.091877012580376,
    "lng": 16.98605508145704,
    "address": "Aleja Generała Józefa Hallera 151",
    "categoryIds": [
      "62B779E5"
    ]
  },
  {
    "id": "022C490D",
    "name": "AKSAMITNA",
    "lat": 51.087189853860714,
    "lng": 17.01360753904453,
    "address": "ul. Powstańców Śląskich 146/1",
    "categoryIds": [
      "62B779E5"
    ]
  },
  {
    "id": "34500BC4",
    "name": "VIVALDIEGO",
    "lat": 51.05215009415712,
    "lng": 17.059373399627702,
    "address": "ul. Vivaldiego 2b",
    "categoryIds": [
      "62B779E5",
      "62B779E5"
    ]
  },
  {
    "id": "641B5094",
    "name": "KSIĘŻĘCA",
    "lat": 51.076011963042625,
    "lng": 17.08415701092531,
    "address": "ul. Chorzowska 2",
    "categoryIds": [
      "62B779E5",
      "62B779E5"
    ]
  },
  {
    "id": "DAE97F2C",
    "name": "APTEKA BROCHOWSKA",
    "lat": 51.06026337282994,
    "lng": 17.083072732570372,
    "address": "ul. Chińska 2a",
    "categoryIds": [
      "62B779E5",
      "62B779E5"
    ]
  },
  {
    "id": "A76DAE1F",
    "name": "DR ZDROWIE",
    "lat": 51.08677409616055,
    "lng": 17.04777821005632,
    "address": "ul. Hubska 112/118 Billa",
    "categoryIds": [
      "62B779E5",
      "62B779E5"
    ]
  },
  {
    "id": "C525D034",
    "name": "WYSOKOGÓRSKA",
    "lat": 51.07305890452566,
    "lng": 17.03657940027051,
    "address": "ul. Wandy Rutkiewicz 9",
    "categoryIds": [
      "62B779E5",
      "62B779E5"
    ]
  },
  {
    "id": "35B5CC3E",
    "name": "REMEDIUM MAK",
    "lat": 51.07847903294515,
    "lng": 17.047324916732805,
    "address": "ul. Krynicka 51",
    "categoryIds": [
      "62B779E5",
      "62B779E5"
    ]
  },
  {
    "id": "AE21C5F0",
    "name": "POD RATUSZEM",
    "lat": 51.1093240817637,
    "lng": 17.03111200080798,
    "address": "ul. Rynek 18",
    "categoryIds": [
      "62B779E5",
      "62B779E5"
    ]
  },
  {
    "id": "7199DC18",
    "name": "MC COY'S",
    "lat": 51.11088509631744,
    "lng": 17.037363831254652,
    "address": "Pl. Nowy Targ 9",
    "categoryIds": [
      "62B779E5",
      "62B779E5"
    ]
  },
  {
    "id": "AE748D58",
    "name": "WRATISLAVIA",
    "lat": 51.12989192123749,
    "lng": 17.036911880182174,
    "address": "ul. Trzebnicka 88",
    "categoryIds": [
      "62B779E5",
      "62B779E5"
    ]
  },
  {
    "id": "DEE7E25E",
    "name": "ŚW. WINCENTEGO",
    "lat": 51.1228042392681,
    "lng": 17.036459278717075,
    "address": "ul. Św.Wincentego 39/41",
    "categoryIds": [
      "62B779E5",
      "62B779E5"
    ]
  },
  {
    "id": "361B9888",
    "name": "MIESZCZAŃSKA",
    "lat": 51.12064401803038,
    "lng": 17.03218523381065,
    "address": "ul. Rydygiera 44",
    "categoryIds": [
      "62B779E5",
      "62B779E5"
    ]
  },
  {
    "id": "3DC49A72",
    "name": "PUŁASKA",
    "lat": 51.100626209779286,
    "lng": 17.045530296624293,
    "address": "ul. Pułaskiego 49a",
    "categoryIds": [
      "62B779E5",
      "62B779E5"
    ]
  },
  {
    "id": "F56BB0AF",
    "name": "CZTERY PORY ROKU",
    "lat": 51.09983458353917,
    "lng": 17.050028583419817,
    "address": "ul. Komuny Paryskiej 79",
    "categoryIds": [
      "62B779E5"
    ]
  },
  {
    "id": "51D491EE",
    "name": "REMEDIUM",
    "lat": 51.11985240030431,
    "lng": 17.057705760583303,
    "address": "ul. Prusa 65",
    "categoryIds": [
      "62B779E5"
    ]
  },
  {
    "id": "1D2D3166",
    "name": "PIASTOWSKA",
    "lat": 51.115250407898834,
    "lng": 17.06046237648775,
    "address": "ul. Piastowska 36",
    "categoryIds": [
      "62B779E5",
      "62B779E5"
    ]
  },
  {
    "id": "6617B12D",
    "name": "NA DAMROTA",
    "lat": 51.12699910558043,
    "lng": 17.05252873893528,
    "address": "ul. Damrota 7",
    "categoryIds": [
      "62B779E5",
      "62B779E5"
    ]
  },
  {
    "id": "8090998B",
    "name": "RUMIANEK",
    "lat": 51.12267524803827,
    "lng": 17.054545423400896,
    "address": "ul. Elizy Orzeszkowej 59/61",
    "categoryIds": [
      "62B779E5",
      "62B779E5"
    ]
  },
  {
    "id": "37D526C5",
    "name": "Apteka Leków Gotowych",
    "lat": 51.102725586424825,
    "lng": 17.09685450673271,
    "address": "ul. Olszewskiego 21",
    "categoryIds": [
      "62B779E5",
      "62B779E5"
    ]
  },
  {
    "id": "F4668179",
    "name": "POD JAWOREM PHARMA",
    "lat": 51.10161804224565,
    "lng": 17.10264775925816,
    "address": "ul. Olszewskiego 75",
    "categoryIds": [
      "62B779E5",
      "62B779E5"
    ]
  },
  {
    "id": "DC527A8D",
    "name": "AMBRA",
    "lat": 51.11552149447753,
    "lng": 17.067244341981905,
    "address": "ul. Bujwida 30",
    "categoryIds": [
      "62B779E5"
    ]
  },
  {
    "id": "4ACFD138",
    "name": "ZIELONA",
    "lat": 51.160624237801045,
    "lng": 17.132651004144805,
    "address": "ul. Paryska 1a",
    "categoryIds": [
      "62B779E5",
      "62B779E5"
    ]
  },
  {
    "id": "8BA8D449",
    "name": "Express Pharm II",
    "lat": 51.15154164906911,
    "lng": 17.13136388958742,
    "address": "ul. Bierutowska 63",
    "categoryIds": [
      "62B779E5",
      "62B779E5"
    ]
  },
  {
    "id": "0BC8FA0C",
    "name": "KARŁOWICKA",
    "lat": 51.107885,
    "lng": 17.038538000000017,
    "address": "ul. Berenta 20/26",
    "categoryIds": [
      "62B779E5",
      "62B779E5"
    ]
  },
  {
    "id": "04027C5E",
    "name": "BEZPIECZNA",
    "lat": 51.141261025285374,
    "lng": 17.024824621519997,
    "address": "ul. Bezpieczna 5a",
    "categoryIds": [
      "62B779E5",
      "62B779E5"
    ]
  },
  {
    "id": "FA795AEA",
    "name": "ŻMIGRODZKA",
    "lat": 51.13663273690375,
    "lng": 17.037014505279558,
    "address": "ul. Żmigrodzka 19",
    "categoryIds": [
      "62B779E5",
      "62B779E5"
    ]
  },
  {
    "id": "3738A64E",
    "name": "MULTI LEK",
    "lat": 51.1363297971305,
    "lng": 17.039074441802995,
    "address": "Aleja Kasprowicza 9B",
    "categoryIds": [
      "62B779E5",
      "62B779E5"
    ]
  },
  {
    "id": "B9EAE83B",
    "name": "LOBELIA",
    "lat": 51.14839998789838,
    "lng": 17.0421998858576,
    "address": "ul. Kamieńskiego 132-144",
    "categoryIds": [
      "62B779E5",
      "62B779E5"
    ]
  },
  {
    "id": "F27AFA24",
    "name": "AMICUS",
    "lat": 51.13231734063778,
    "lng": 17.066046735656755,
    "address": "Aleja Kromera 23a",
    "categoryIds": [
      "62B779E5",
      "62B779E5"
    ]
  },
  {
    "id": "15816B88",
    "name": "\"ZIKO\" Apteka",
    "lat": 51.139706416791064,
    "lng": 16.96350049276498,
    "address": "ul. Dokerska 22",
    "categoryIds": [
      "62B779E5",
      "62B779E5"
    ]
  },
  {
    "id": "6B873AAF",
    "name": "DGA 11",
    "lat": 51.076038926266236,
    "lng": 17.04197659195711,
    "address": "ul. Świeradowska 51/57",
    "categoryIds": [
      "62B779E5",
      "62B779E5"
    ]
  },
  {
    "id": "BEE54D3B",
    "name": "DGA 10",
    "lat": 51.09225698523062,
    "lng": 17.028500503314035,
    "address": "ul. Pabianicka 25",
    "categoryIds": [
      "62B779E5",
      "62B779E5"
    ]
  },
  {
    "id": "D2531AB1",
    "name": "DGA 1",
    "lat": 51.12237895074773,
    "lng": 16.98974861801912,
    "address": "ul. Legnicka 62",
    "categoryIds": [
      "62B779E5",
      "62B779E5"
    ]
  },
  {
    "id": "A6D2AF5F",
    "name": "Tumska",
    "lat": 51.112126062386004,
    "lng": 17.039667209995287,
    "address": "ul. Piaskowa 11",
    "categoryIds": [
      "62B779E5",
      "62B779E5"
    ]
  },
  {
    "id": "9974F814",
    "name": "Aloes",
    "lat": 51.091469564512,
    "lng": 17.01873227797512,
    "address": "ul. Powstańców Śląskich 120",
    "categoryIds": [
      "62B779E5",
      "62B779E5"
    ]
  },
  {
    "id": "22B65CC4",
    "name": "Poleska",
    "lat": 51.1464872933477,
    "lng": 17.127683898818987,
    "address": "ul. Kiełczowska 51d",
    "categoryIds": [
      "62B779E5",
      "62B779E5"
    ]
  },
  {
    "id": "DB38AFB9",
    "name": "Punkt Selektywnej Zbiórki Opadów Komunalnych",
    "lat": 51.12119037546865,
    "lng": 17.018834492576616,
    "address": "ul. Kazimierza Michalczyka 9",
    "categoryIds": [
      "62B779E5",
      "62B779E5",
      "DD95DF21",
      "97113F89",
      "E2103836",
      "5A6A547F",
      "E4060C87"
    ]
  },
  {
    "id": "65B1D64E",
    "name": "Acer",
    "lat": 51.130277317154665,
    "lng": 17.043516179931657,
    "address": "ul. Zakładowa 11e",
    "categoryIds": [
      "62B779E5"
    ]
  },
  {
    "id": "2BEB31FA",
    "name": "Lobelia",
    "lat": 51.148445837751574,
    "lng": 17.042250177276628,
    "address": "ul. Kamieńskiego 132-144",
    "categoryIds": [
      "62B779E5"
    ]
  },
  {
    "id": "C1534487",
    "name": "PROMYK SŁOŃCA",
    "lat": 51.09723221396008,
    "lng": 17.03141002954294,
    "address": "ul. Swobodna 8a",
    "categoryIds": [
      "62B779E5"
    ]
  },
  {
    "id": "6461ADF9",
    "name": "ul. Komandorska 147",
    "lat": 51.09333933465239,
    "lng": 17.025926253211992,
    "address": "ul. Komandorska 147",
    "categoryIds": [
      "62B779E5",
      "5A6A547F",
      "E4060C87"
    ]
  },
  {
    "id": "597251D8",
    "name": "BOK Ekosystem",
    "lat": 51.120951309891566,
    "lng": 17.018067380798357,
    "address": "ul. Kazimierza Michalczyka 9",
    "categoryIds": [
      "DD95DF21"
    ]
  },
  {
    "id": "41B393EA",
    "name": "Żernicka/Jaksonowicka",
    "lat": 51.121810532871436,
    "lng": 16.940230947053465,
    "address": "Żernicka/Jaksonowicka",
    "categoryIds": [
      "97113F89",
      "5A6A547F"
    ]
  },
  {
    "id": "F1ACD079",
    "name": "Traugutta 62",
    "lat": 51.1037774417592,
    "lng": 17.049824735534685,
    "address": "Traugutta 62",
    "categoryIds": [
      "5A6A547F"
    ]
  },
  {
    "id": "EE5DCC9B",
    "name": "Bacciarellego 8-10",
    "lat": 51.10556770164551,
    "lng": 17.111944696319597,
    "address": "Bacciarellego 8-10",
    "categoryIds": [
      "5A6A547F"
    ]
  },
  {
    "id": "7B642C8E",
    "name": "Kminkowa 51",
    "lat": 51.17850680055337,
    "lng": 16.99824049176027,
    "address": "Kminkowa 51",
    "categoryIds": [
      "5A6A547F"
    ]
  },
  {
    "id": "8CF0DE86",
    "name": "AL. Śliwowa bn",
    "lat": 51.15520251443514,
    "lng": 16.93854524792482,
    "address": "AL. Śliwowa bn",
    "categoryIds": [
      "5A6A547F"
    ]
  },
  {
    "id": "06792560",
    "name": "Gwarecka 15",
    "lat": 51.141365071294096,
    "lng": 16.959970733535783,
    "address": "Gwarecka 15",
    "categoryIds": [
      "5A6A547F"
    ]
  },
  {
    "id": "F73043C8",
    "name": "Norwida 25",
    "lat": 51.11164362642636,
    "lng": 17.064126274002092,
    "address": "Norwida 25",
    "categoryIds": [
      "5A6A547F"
    ]
  },
  {
    "id": "40870B20",
    "name": "Królewiecka 147-153",
    "lat": 51.14817662695291,
    "lng": 16.931002876174944,
    "address": "Królewiecka 147-153",
    "categoryIds": [
      "5A6A547F"
    ]
  },
  {
    "id": "CB1C7E00",
    "name": "Lazurowa/ Boguszowska",
    "lat": 51.14489212876456,
    "lng": 16.890072366607683,
    "address": "Lazurowa/ Boguszowska",
    "categoryIds": [
      "5A6A547F"
    ]
  },
  {
    "id": "FB92B007",
    "name": "Grunwaldzka 55",
    "lat": 51.11358344304711,
    "lng": 17.06272079647829,
    "address": "Grunwaldzka 55",
    "categoryIds": [
      "5A6A547F"
    ]
  },
  {
    "id": "1DEEBCB9",
    "name": "Strzegomska 148",
    "lat": 51.11420308952931,
    "lng": 16.97279169262697,
    "address": "Strzegomska 148",
    "categoryIds": [
      "5A6A547F"
    ]
  },
  {
    "id": "287EE9A6",
    "name": "Jaracza 37",
    "lat": 51.12469540618423,
    "lng": 17.057860633743303,
    "address": "Jaracza 37",
    "categoryIds": [
      "5A6A547F"
    ]
  },
  {
    "id": "B1FEC6F5",
    "name": "Kopańskiego 18",
    "lat": 51.15430078411712,
    "lng": 17.120431205642717,
    "address": "Kopańskiego 18",
    "categoryIds": [
      "5A6A547F"
    ]
  },
  {
    "id": "8B827052",
    "name": "Połaniecka bn / Stalowowolska",
    "lat": 51.091661471671586,
    "lng": 16.999184629333513,
    "address": "Połaniecka bn / Stalowowolska",
    "categoryIds": [
      "5A6A547F"
    ]
  },
  {
    "id": "997A36B7",
    "name": "Mińska bn",
    "lat": 51.10153236123885,
    "lng": 16.94334103764345,
    "address": "Mińska bn",
    "categoryIds": [
      "5A6A547F"
    ]
  },
  {
    "id": "D9DD1FBA",
    "name": "Kromera 61",
    "lat": 51.13528295661263,
    "lng": 17.070558211219804,
    "address": "Kromera 61",
    "categoryIds": [
      "5A6A547F"
    ]
  },
  {
    "id": "2361FE0F",
    "name": "Kukuczki 19",
    "lat": 51.071758317788465,
    "lng": 17.03693940342714,
    "address": "Kukuczki 19",
    "categoryIds": [
      "5A6A547F"
    ]
  },
  {
    "id": "A8904ADF",
    "name": "Hallera 20-24",
    "lat": 51.08700828415458,
    "lng": 17.008904954803484,
    "address": "Hallera 20-24",
    "categoryIds": [
      "5A6A547F"
    ]
  },
  {
    "id": "ACD9735F",
    "name": "Przestrzenna 48",
    "lat": 51.089208582508235,
    "lng": 17.04267933071901,
    "address": "Przestrzenna 48",
    "categoryIds": [
      "5A6A547F"
    ]
  },
  {
    "id": "50CFE2EC",
    "name": "Chałubińskiego 3",
    "lat": 51.11083534546829,
    "lng": 17.06767751873781,
    "address": "Chałubińskiego 3",
    "categoryIds": [
      "5A6A547F"
    ]
  },
  {
    "id": "23A6CFF0",
    "name": "Orzechowa 18-20",
    "lat": 51.08133015478596,
    "lng": 17.042132160079973,
    "address": "Orzechowa 18-20",
    "categoryIds": [
      "5A6A547F"
    ]
  },
  {
    "id": "9631779A",
    "name": "Wieczysta 161",
    "lat": 51.08577499305317,
    "lng": 17.04323723019411,
    "address": "Wieczysta 161",
    "categoryIds": [
      "5A6A547F"
    ]
  },
  {
    "id": "44B5C125",
    "name": "Dobrzańska",
    "lat": 51.13588548186756,
    "lng": 16.980613014114397,
    "address": "Dobrzańska",
    "categoryIds": [
      "5A6A547F"
    ]
  },
  {
    "id": "ECE05D5C",
    "name": "Hermanowska/Uznamska",
    "lat": 51.122419355035646,
    "lng": 16.955260774505632,
    "address": "Hermanowska/Uznamska",
    "categoryIds": [
      "5A6A547F"
    ]
  },
  {
    "id": "C1F667E8",
    "name": "Kolumba 5",
    "lat": 51.112519248177776,
    "lng": 17.119004270446794,
    "address": "Kolumba 5",
    "categoryIds": [
      "5A6A547F"
    ]
  },
  {
    "id": "3B8F43DD",
    "name": "Przyjaźni 4",
    "lat": 51.06707278849824,
    "lng": 17.001373311889665,
    "address": "Przyjaźni 4",
    "categoryIds": [
      "5A6A547F"
    ]
  },
  {
    "id": "8FE51326",
    "name": "Smardzowska 2",
    "lat": 51.06270369501293,
    "lng": 17.044267198455827,
    "address": "Smardzowska 2",
    "categoryIds": [
      "5A6A547F"
    ]
  },
  {
    "id": "3467C37D",
    "name": "Brylantowa 1",
    "lat": 51.05168473626067,
    "lng": 17.02821685971071,
    "address": "Brylantowa 1",
    "categoryIds": [
      "5A6A547F"
    ]
  },
  {
    "id": "9E9D63F9",
    "name": "Buforowa 14-16",
    "lat": 51.065265867743236,
    "lng": 17.05523206890871,
    "address": "Buforowa 14-16",
    "categoryIds": [
      "5A6A547F"
    ]
  },
  {
    "id": "4B1FDDC4",
    "name": "Konduktorska 2a-2b",
    "lat": 51.065292837228284,
    "lng": 17.06493093670656,
    "address": "Konduktorska 2a-2b",
    "categoryIds": [
      "5A6A547F"
    ]
  },
  {
    "id": "D2776360",
    "name": "Srebrnogórska 2-16",
    "lat": 51.072533575457776,
    "lng": 17.046820661438005,
    "address": "Srebrnogórska 2-16",
    "categoryIds": [
      "5A6A547F"
    ]
  },
  {
    "id": "CC7AE415",
    "name": "Brossa 41",
    "lat": 51.07982710299476,
    "lng": 17.024091622245805,
    "address": "Brossa 41",
    "categoryIds": [
      "5A6A547F"
    ]
  },
  {
    "id": "B0A03390",
    "name": "Szewczenki",
    "lat": 51.13756847165143,
    "lng": 17.132694265258806,
    "address": "Szewczenki",
    "categoryIds": [
      "5A6A547F"
    ]
  },
  {
    "id": "DD731E4C",
    "name": "ul. Koszalińska / ul. Hermanowska",
    "lat": 51.1236920720148,
    "lng": 16.950625917327898,
    "address": "ul. Koszalińska / ul. Hermanowska",
    "categoryIds": [
      "5A6A547F"
    ]
  },
  {
    "id": "85DDA6AE",
    "name": "Roślinna 2",
    "lat": 51.1012089798176,
    "lng": 16.943437597167986,
    "address": "Roślinna 2",
    "categoryIds": [
      "5A6A547F"
    ]
  },
  {
    "id": "C949E52A",
    "name": "Wieczysta 125",
    "lat": 51.08575814458641,
    "lng": 17.040812513244646,
    "address": "Wieczysta 125",
    "categoryIds": [
      "5A6A547F"
    ]
  },
  {
    "id": "FFFC5A37",
    "name": "Koszarowa 6-8",
    "lat": 51.14014669301858,
    "lng": 17.069082996261614,
    "address": "Koszarowa 6-8",
    "categoryIds": [
      "5A6A547F"
    ]
  },
  {
    "id": "6441F7F2",
    "name": "Mglista 16",
    "lat": 51.06977629566081,
    "lng": 16.995880147827165,
    "address": "Mglista 16",
    "categoryIds": [
      "5A6A547F"
    ]
  },
  {
    "id": "B2CDB089",
    "name": "Krzycka 94",
    "lat": 51.066691857714325,
    "lng": 16.989094159019487,
    "address": "Krzycka 94",
    "categoryIds": [
      "5A6A547F"
    ]
  },
  {
    "id": "EA12EB7B",
    "name": "Zabrodzka / Balladyny",
    "lat": 51.06122026703514,
    "lng": 16.970130941284197,
    "address": "Zabrodzka / Balladyny",
    "categoryIds": [
      "5A6A547F",
      "E4060C87"
    ]
  },
  {
    "id": "583116EC",
    "name": "Kołobrzeska bn",
    "lat": 51.121295597602035,
    "lng": 16.94665490688135,
    "address": "Kołobrzeska bn",
    "categoryIds": [
      "5A6A547F"
    ]
  },
  {
    "id": "D276B29C",
    "name": "Zoli E. 46",
    "lat": 51.077417400135346,
    "lng": 16.956768175972,
    "address": "Zoli E. 46",
    "categoryIds": [
      "5A6A547F"
    ]
  },
  {
    "id": "C101CE51",
    "name": "Róży Wiatrów 13",
    "lat": 51.07266840155283,
    "lng": 16.991331121337907,
    "address": "Róży Wiatrów 13",
    "categoryIds": [
      "5A6A547F"
    ]
  },
  {
    "id": "FDAABB66",
    "name": "Metalowców 25a",
    "lat": 51.13056683092479,
    "lng": 16.955400249374406,
    "address": "Metalowców 25a",
    "categoryIds": [
      "5A6A547F"
    ]
  },
  {
    "id": "B5D40572",
    "name": "Junacka",
    "lat": 51.15533709953839,
    "lng": 16.86018182934572,
    "address": "Junacka",
    "categoryIds": [
      "5A6A547F"
    ]
  },
  {
    "id": "8747E21A",
    "name": "Gołężycka 50",
    "lat": 51.136851525504035,
    "lng": 16.97104289234926,
    "address": "Gołężycka 50",
    "categoryIds": [
      "5A6A547F"
    ]
  },
  {
    "id": "50515BB5",
    "name": "Mrągowska",
    "lat": 51.147621205612076,
    "lng": 16.936139306438463,
    "address": "Mrągowska",
    "categoryIds": [
      "5A6A547F"
    ]
  },
  {
    "id": "108C09AA",
    "name": "Buforowa 30",
    "lat": 51.06216932927558,
    "lng": 17.05546810330202,
    "address": "Buforowa 30",
    "categoryIds": [
      "5A6A547F"
    ]
  },
  {
    "id": "52122706",
    "name": "Wincentego Stysia 46",
    "lat": 51.09922653489421,
    "lng": 17.01872183979799,
    "address": "Wincentego Stysia 46",
    "categoryIds": [
      "5A6A547F"
    ]
  },
  {
    "id": "50DE84B7",
    "name": "Jesionowa 74",
    "lat": 51.0882718679801,
    "lng": 17.054513236892717,
    "address": "Jesionowa 74",
    "categoryIds": [
      "5A6A547F"
    ]
  },
  {
    "id": "2EC27477",
    "name": "Sienkiewicza 95",
    "lat": 51.1156780841368,
    "lng": 17.06163718403627,
    "address": "Sienkiewicza 95",
    "categoryIds": [
      "5A6A547F"
    ]
  },
  {
    "id": "059050C4",
    "name": "Wilcza 30",
    "lat": 51.090310377113845,
    "lng": 17.078529736412065,
    "address": "Wilcza 30",
    "categoryIds": [
      "5A6A547F"
    ]
  },
  {
    "id": "7763CCE1",
    "name": "ul. Ślężna 88",
    "lat": 51.083340325976046,
    "lng": 17.025247654331224,
    "address": "ul. Ślężna 88",
    "categoryIds": [
      "5A6A547F"
    ]
  },
  {
    "id": "ABA1F6C7",
    "name": "Gagarina 14a",
    "lat": 51.09719684093739,
    "lng": 16.935098609340685,
    "address": "Gagarina 14a",
    "categoryIds": [
      "5A6A547F"
    ]
  },
  {
    "id": "AAC59389",
    "name": "Jarnołtowska/ Kośnego",
    "lat": 51.12068193874473,
    "lng": 16.863266369712846,
    "address": "Jarnołtowska/ Kośnego",
    "categoryIds": [
      "5A6A547F"
    ]
  },
  {
    "id": "85B5BB95",
    "name": "ul. Stabłowicka 147",
    "lat": 51.17178548938557,
    "lng": 16.903027436149614,
    "address": "ul. Stabłowicka 147",
    "categoryIds": [
      "5A6A547F"
    ]
  },
  {
    "id": "84FA1065",
    "name": "ul. Wojanowska 44",
    "lat": 51.15396431306604,
    "lng": 16.895329496276872,
    "address": "ul. Wojanowska 44",
    "categoryIds": [
      "5A6A547F"
    ]
  },
  {
    "id": "3E3F2A6D",
    "name": "ul. Wieczysta 141",
    "lat": 51.08670164927478,
    "lng": 17.037872812164323,
    "address": "ul. Wieczysta 141",
    "categoryIds": [
      "5A6A547F"
    ]
  },
  {
    "id": "BD115E96",
    "name": "ul. Uciechowska",
    "lat": 51.157436576320414,
    "lng": 16.915971776855486,
    "address": "ul. Uciechowska",
    "categoryIds": [
      "5A6A547F"
    ]
  },
  {
    "id": "9FAD4375",
    "name": "ul. Trzebnicka 20",
    "lat": 51.12210958792535,
    "lng": 17.035791417968767,
    "address": "ul. Trzebnicka 20",
    "categoryIds": [
      "5A6A547F"
    ]
  },
  {
    "id": "A67F9FB6",
    "name": "Plac Katedralny 14",
    "lat": 51.11402797288753,
    "lng": 17.047861358535783,
    "address": "Plac Katedralny 14",
    "categoryIds": [
      "5A6A547F"
    ]
  },
  {
    "id": "1DFBDCAF",
    "name": "ul. Maślicka 104",
    "lat": 51.153129854271775,
    "lng": 16.939446470153825,
    "address": "ul. Maślicka 104",
    "categoryIds": [
      "5A6A547F"
    ]
  },
  {
    "id": "CAB13B83",
    "name": "ul. Ignuta 125",
    "lat": 51.14326830228848,
    "lng": 16.963355681312578,
    "address": "ul. Ignuta 125",
    "categoryIds": [
      "5A6A547F"
    ]
  },
  {
    "id": "87100EC1",
    "name": "Brązowa 4-8",
    "lat": 51.10136393369737,
    "lng": 17.000815412414568,
    "address": "Brązowa 4-8",
    "categoryIds": [
      "5A6A547F"
    ]
  },
  {
    "id": "909607AB",
    "name": "Balzaka 26",
    "lat": 51.07676692736312,
    "lng": 16.95880129040529,
    "address": "Balzaka 26",
    "categoryIds": [
      "5A6A547F"
    ]
  },
  {
    "id": "DD2CF37D",
    "name": "ul. Słonimskiego 3",
    "lat": 51.12956025779316,
    "lng": 17.044658800972,
    "address": "ul. Słonimskiego 3",
    "categoryIds": [
      "5A6A547F"
    ]
  },
  {
    "id": "D2BC22D5",
    "name": "Daniłowskiego/Przesmyckiego",
    "lat": 51.13825511386253,
    "lng": 17.060381910217302,
    "address": "Daniłowskiego/Przesmyckiego",
    "categoryIds": [
      "5A6A547F"
    ]
  },
  {
    "id": "D3772998",
    "name": "ul. Minkowskiego 3",
    "lat": 51.11441188158104,
    "lng": 17.062237998855608,
    "address": "ul. Minkowskiego 3",
    "categoryIds": [
      "5A6A547F"
    ]
  },
  {
    "id": "9BCD8D6F",
    "name": "ul. Lompy 2-4",
    "lat": 51.123372521946884,
    "lng": 17.054499825847643,
    "address": "ul. Lompy 2-4",
    "categoryIds": [
      "5A6A547F"
    ]
  },
  {
    "id": "32A9D1DE",
    "name": "ul. Litewska 33",
    "lat": 51.14205838822237,
    "lng": 17.132190009964006,
    "address": "ul. Litewska 33",
    "categoryIds": [
      "5A6A547F"
    ]
  },
  {
    "id": "BD894E73",
    "name": "ul. Krzywoustego 69",
    "lat": 51.137979111848196,
    "lng": 17.075606128585832,
    "address": "ul. Krzywoustego 69",
    "categoryIds": [
      "5A6A547F"
    ]
  },
  {
    "id": "B529D43B",
    "name": "ul. Krzywoustego 107",
    "lat": 51.138483992330265,
    "lng": 17.07962407769014,
    "address": "ul. Krzywoustego 107",
    "categoryIds": [
      "5A6A547F"
    ]
  },
  {
    "id": "E6ACA55A",
    "name": "ul. Komandorska 57",
    "lat": 51.09587285976794,
    "lng": 17.027616044891374,
    "address": "ul. Komandorska 57",
    "categoryIds": [
      "5A6A547F"
    ]
  },
  {
    "id": "34C2543A",
    "name": "ul. Kamieńskiego 156",
    "lat": 51.14933422224565,
    "lng": 17.041134378326433,
    "address": "ul. Kamieńskiego 156",
    "categoryIds": [
      "5A6A547F"
    ]
  },
  {
    "id": "DF636DCC",
    "name": "Kamieńskiego 132",
    "lat": 51.14798817845948,
    "lng": 17.042099973571794,
    "address": "Kamieńskiego 132",
    "categoryIds": [
      "5A6A547F"
    ]
  },
  {
    "id": "0F4D60FC",
    "name": "ul. Jagiellończyka 44",
    "lat": 51.12185369178932,
    "lng": 17.038108846557634,
    "address": "ul. Jagiellończyka 44",
    "categoryIds": [
      "5A6A547F"
    ]
  },
  {
    "id": "C900836D",
    "name": "ul. Czajkowskiego 40",
    "lat": 51.138840771208194,
    "lng": 17.06570341290285,
    "address": "ul. Czajkowskiego 40",
    "categoryIds": [
      "5A6A547F"
    ]
  },
  {
    "id": "30D82ABF",
    "name": "Przyjaźni 101-105",
    "lat": 51.067106499036136,
    "lng": 16.996022304904955,
    "address": "Przyjaźni 101-105",
    "categoryIds": [
      "5A6A547F"
    ]
  },
  {
    "id": "4D635342",
    "name": "Kamieńskiego 207",
    "lat": 51.15575767545594,
    "lng": 17.04447641075899,
    "address": "Kamieńskiego 207",
    "categoryIds": [
      "5A6A547F"
    ]
  },
  {
    "id": "3D248690",
    "name": "Piastowska 1 (Dom Studencki)",
    "lat": 51.11271457692053,
    "lng": 17.06090762318422,
    "address": "Piastowska 1 (Dom Studencki)",
    "categoryIds": [
      "5A6A547F"
    ]
  },
  {
    "id": "EC7CAB3B",
    "name": "Objazdowa",
    "lat": 51.12258097183383,
    "lng": 16.922044298065202,
    "address": "Objazdowa",
    "categoryIds": [
      "5A6A547F"
    ]
  },
  {
    "id": "20B445C7",
    "name": "Zwycięska 16-18",
    "lat": 51.058050966196895,
    "lng": 17.011372587097185,
    "address": "Zwycięska 16-18",
    "categoryIds": [
      "5A6A547F"
    ]
  },
  {
    "id": "06CBED80",
    "name": "Nehringa 3-7",
    "lat": 51.11158889951597,
    "lng": 17.0565275758629,
    "address": "Nehringa 3-7",
    "categoryIds": [
      "5A6A547F"
    ]
  },
  {
    "id": "DF667077",
    "name": "Lubuska 68",
    "lat": 51.09998448903999,
    "lng": 17.011308214080827,
    "address": "Lubuska 68",
    "categoryIds": [
      "5A6A547F"
    ]
  },
  {
    "id": "2E6250A5",
    "name": "Kmicica/Rumiankowa",
    "lat": 51.121023703119576,
    "lng": 16.930112382782,
    "address": "Kmicica/Rumiankowa",
    "categoryIds": [
      "5A6A547F"
    ]
  },
  {
    "id": "5E202FB8",
    "name": "Obornicka 101-111",
    "lat": 51.142081947352544,
    "lng": 17.026049634826677,
    "address": "Obornicka 101-111",
    "categoryIds": [
      "5A6A547F"
    ]
  },
  {
    "id": "37904097",
    "name": "Jedności Narodowej 170",
    "lat": 51.12674072629631,
    "lng": 17.04834683836748,
    "address": "Jedności Narodowej 170",
    "categoryIds": [
      "5A6A547F"
    ]
  },
  {
    "id": "EC7E2E05",
    "name": "Rostafińskiego 8",
    "lat": 51.11954046108029,
    "lng": 17.03397288025667,
    "address": "Rostafińskiego 8",
    "categoryIds": [
      "5A6A547F"
    ]
  },
  {
    "id": "56544728",
    "name": "Grunwaldzka 106",
    "lat": 51.1148757669968,
    "lng": 17.071124157321947,
    "address": "Grunwaldzka 106",
    "categoryIds": [
      "5A6A547F"
    ]
  },
  {
    "id": "F5721BC1",
    "name": "Olszewskiego 25",
    "lat": 51.10202921891095,
    "lng": 17.097294470680254,
    "address": "Olszewskiego 25",
    "categoryIds": [
      "5A6A547F"
    ]
  },
  {
    "id": "B85CA919",
    "name": "al. Brucknera 25-43 (parking mebli Polonia)",
    "lat": 51.134868926320735,
    "lng": 17.080613812816637,
    "address": "al. Brucknera 25-43 (parking mebli Polonia)",
    "categoryIds": [
      "5A6A547F"
    ]
  },
  {
    "id": "81E634F6",
    "name": "ul. Czerniawska 18",
    "lat": 51.073207702004716,
    "lng": 17.039353391540544,
    "address": "ul. Czerniawska 18",
    "categoryIds": [
      "5A6A547F"
    ]
  },
  {
    "id": "BB0044E0",
    "name": "Malinowskiego ROD Jagodno",
    "lat": 51.06147649889968,
    "lng": 17.063756129158037,
    "address": "Malinowskiego ROD Jagodno",
    "categoryIds": [
      "5A6A547F"
    ]
  },
  {
    "id": "89DBB3D4",
    "name": "Semaforowa 19-27",
    "lat": 51.05995425852027,
    "lng": 17.07732542456438,
    "address": "Semaforowa 19-27",
    "categoryIds": [
      "5A6A547F"
    ]
  },
  {
    "id": "9D2B2EFA",
    "name": "Śliczna 2-22",
    "lat": 51.084861797305834,
    "lng": 17.03796937168886,
    "address": "Śliczna 2-22",
    "categoryIds": [
      "5A6A547F"
    ]
  },
  {
    "id": "A7F48010",
    "name": "Sielska 5",
    "lat": 51.1398841653119,
    "lng": 16.963210842025774,
    "address": "Sielska 5",
    "categoryIds": [
      "5A6A547F"
    ]
  },
  {
    "id": "D1ADFBE5",
    "name": "Budziszyńska 114",
    "lat": 51.11257986753094,
    "lng": 16.952685853851335,
    "address": "Budziszyńska 114",
    "categoryIds": [
      "5A6A547F"
    ]
  },
  {
    "id": "E8D68A6D",
    "name": "Rodzynkowa 14",
    "lat": 51.155976373417744,
    "lng": 16.89490034283449,
    "address": "Rodzynkowa 14",
    "categoryIds": [
      "5A6A547F"
    ]
  },
  {
    "id": "AD4A8811",
    "name": "ul. Karmelkowa 72-74",
    "lat": 51.06735595625295,
    "lng": 16.97375728787233,
    "address": "ul. Karmelkowa 72-74",
    "categoryIds": [
      "5A6A547F"
    ]
  },
  {
    "id": "E86B7613",
    "name": "Nyska 50-58b",
    "lat": 51.08740589558694,
    "lng": 17.0567072838669,
    "address": "Nyska 50-58b",
    "categoryIds": [
      "5A6A547F"
    ]
  },
  {
    "id": "19EED9ED",
    "name": "Krośnieńska 12",
    "lat": 51.11474569433245,
    "lng": 16.955093806994455,
    "address": "Krośnieńska 12",
    "categoryIds": [
      "5A6A547F"
    ]
  },
  {
    "id": "9A33BBC0",
    "name": "Złotnicka",
    "lat": 51.138679211302964,
    "lng": 16.884729406250017,
    "address": "Złotnicka",
    "categoryIds": [
      "5A6A547F"
    ]
  },
  {
    "id": "D079A10A",
    "name": "Rajska",
    "lat": 51.14143010880049,
    "lng": 16.891864906257638,
    "address": "Rajska",
    "categoryIds": [
      "5A6A547F"
    ]
  },
  {
    "id": "08C8A9BC",
    "name": "Lubelska 95",
    "lat": 51.164086812208424,
    "lng": 16.921133688104646,
    "address": "Lubelska 95",
    "categoryIds": [
      "5A6A547F"
    ]
  },
  {
    "id": "D663EED3",
    "name": "Kielecka",
    "lat": 51.138110381304365,
    "lng": 16.886698147666948,
    "address": "Kielecka",
    "categoryIds": [
      "5A6A547F"
    ]
  },
  {
    "id": "89CC07E9",
    "name": "Hłaski 40-50",
    "lat": 51.100171449151865,
    "lng": 16.95056154431154,
    "address": "Hłaski 40-50",
    "categoryIds": [
      "5A6A547F"
    ]
  },
  {
    "id": "C674A11C",
    "name": "Hłaski 26-40",
    "lat": 51.100629582446146,
    "lng": 16.94956912697603,
    "address": "Hłaski 26-40",
    "categoryIds": [
      "5A6A547F"
    ]
  },
  {
    "id": "65C0ACA7",
    "name": "Opolska 119-129",
    "lat": 51.07269873736922,
    "lng": 17.08846329749872,
    "address": "Opolska 119-129",
    "categoryIds": [
      "5A6A547F"
    ]
  },
  {
    "id": "5F8419F5",
    "name": "Motylkowa 15-43",
    "lat": 51.06248118384631,
    "lng": 17.026162287605302,
    "address": "Motylkowa 15-43",
    "categoryIds": [
      "5A6A547F"
    ]
  },
  {
    "id": "DB7E0745",
    "name": "Plac Zgody 13",
    "lat": 51.10003402194991,
    "lng": 17.05293073357393,
    "address": "Plac Zgody 13",
    "categoryIds": [
      "5A6A547F"
    ]
  },
  {
    "id": "8F961F53",
    "name": "Dworska - Pilczycka",
    "lat": 51.14354306829604,
    "lng": 16.95431127251436,
    "address": "Dworska - Pilczycka",
    "categoryIds": [
      "5A6A547F"
    ]
  },
  {
    "id": "E2345015",
    "name": "Hutnicza 66",
    "lat": 51.13811374718297,
    "lng": 16.9609282821541,
    "address": "Hutnicza 66",
    "categoryIds": [
      "5A6A547F"
    ]
  },
  {
    "id": "E7E4D46F",
    "name": "Watowa – Wińska",
    "lat": 51.17092612677576,
    "lng": 16.839394709480302,
    "address": "Watowa – Wińska",
    "categoryIds": [
      "5A6A547F"
    ]
  },
  {
    "id": "6A377C86",
    "name": "Budziszyńska 96",
    "lat": 51.112444659527625,
    "lng": 16.956549268985782,
    "address": "Budziszyńska 96",
    "categoryIds": [
      "5A6A547F"
    ]
  },
  {
    "id": "1DDA88EC",
    "name": "Graniczna 2",
    "lat": 51.10706654888067,
    "lng": 16.9467903584366,
    "address": "Graniczna 2",
    "categoryIds": [
      "5A6A547F"
    ]
  },
  {
    "id": "B8365817",
    "name": "Inżynierska 60",
    "lat": 51.09363750272708,
    "lng": 16.98490723074724,
    "address": "Inżynierska 60",
    "categoryIds": [
      "5A6A547F"
    ]
  },
  {
    "id": "8D11E0F4",
    "name": "Litewska 34-36",
    "lat": 51.14314714403328,
    "lng": 17.133439919364946,
    "address": "Litewska 34-36",
    "categoryIds": [
      "5A6A547F"
    ]
  },
  {
    "id": "CD90D5BA",
    "name": "Czajkowskiego 39",
    "lat": 51.139936334397895,
    "lng": 17.066993555439012,
    "address": "Czajkowskiego 39",
    "categoryIds": [
      "5A6A547F"
    ]
  },
  {
    "id": "BA7BF62B",
    "name": "Litewska 2",
    "lat": 51.143259888530935,
    "lng": 17.137152096641557,
    "address": "Litewska 2",
    "categoryIds": [
      "5A6A547F"
    ]
  },
  {
    "id": "E18541C4",
    "name": "Uniwersytecka 7/10",
    "lat": 51.113287087444235,
    "lng": 17.03420891464998,
    "address": "Uniwersytecka 7/10",
    "categoryIds": [
      "5A6A547F"
    ]
  },
  {
    "id": "4AE2BD3C",
    "name": "ul. Opatowicka",
    "lat": 51.09473750729962,
    "lng": 17.129395148170488,
    "address": "ul. Opatowicka",
    "categoryIds": [
      "5A6A547F"
    ]
  },
  {
    "id": "288BE05D",
    "name": "ul. Tarnogajska 37a-c",
    "lat": 51.079800141978055,
    "lng": 17.062350651634233,
    "address": "ul. Tarnogajska 37a-c",
    "categoryIds": [
      "5A6A547F"
    ]
  },
  {
    "id": "C28E8D5E",
    "name": "ul. Kukuczki / Himalajska 29",
    "lat": 51.072054939647686,
    "lng": 17.034101626289385,
    "address": "ul. Kukuczki / Himalajska 29",
    "categoryIds": [
      "5A6A547F"
    ]
  },
  {
    "id": "E4AA6337",
    "name": "Tańskiego 27",
    "lat": 51.12636533688067,
    "lng": 16.95708467663576,
    "address": "Tańskiego 27",
    "categoryIds": [
      "5A6A547F"
    ]
  },
  {
    "id": "7C52D568",
    "name": "Jemiołowa 50/54",
    "lat": 51.09551574894043,
    "lng": 17.008389970672624,
    "address": "Jemiołowa 50/54",
    "categoryIds": [
      "5A6A547F"
    ]
  },
  {
    "id": "02264A5B",
    "name": "Buczacka 6",
    "lat": 51.09942360416751,
    "lng": 16.937644025695818,
    "address": "Buczacka 6",
    "categoryIds": [
      "5A6A547F"
    ]
  },
  {
    "id": "56543F91",
    "name": "Piastowska 38",
    "lat": 51.11549623803116,
    "lng": 17.06016733349611,
    "address": "Piastowska 38",
    "categoryIds": [
      "5A6A547F"
    ]
  },
  {
    "id": "33CDADCA",
    "name": "Księcia Witolda 2",
    "lat": 51.11479578708495,
    "lng": 17.032368919265764,
    "address": "Księcia Witolda 2",
    "categoryIds": [
      "5A6A547F"
    ]
  },
  {
    "id": "2CAC7484",
    "name": "Wełniania 31",
    "lat": 51.15872010360932,
    "lng": 16.898049256217973,
    "address": "Wełniania 31",
    "categoryIds": [
      "5A6A547F"
    ]
  },
  {
    "id": "CD792945",
    "name": "Niedźwiedzia 6",
    "lat": 51.122624742952326,
    "lng": 16.9942654580002,
    "address": "Niedźwiedzia 6",
    "categoryIds": [
      "5A6A547F"
    ]
  },
  {
    "id": "22DB46C0",
    "name": "Kozanowska 93",
    "lat": 51.13894679458821,
    "lng": 16.968470653903978,
    "address": "Kozanowska 93",
    "categoryIds": [
      "5A6A547F"
    ]
  },
  {
    "id": "247ECD69",
    "name": "Orzechowa 23",
    "lat": 51.08174129497646,
    "lng": 17.040555021179216,
    "address": "Orzechowa 23",
    "categoryIds": [
      "5A6A547F"
    ]
  },
  {
    "id": "7407237F",
    "name": "Borowska 196- 212",
    "lat": 51.076349002207806,
    "lng": 17.03371002377321,
    "address": "Borowska 196- 212",
    "categoryIds": [
      "5A6A547F"
    ]
  },
  {
    "id": "7B00580A",
    "name": "Więckowskiego 37",
    "lat": 51.09717325890714,
    "lng": 17.052024146926897,
    "address": "Więckowskiego 37",
    "categoryIds": [
      "5A6A547F"
    ]
  },
  {
    "id": "9CACF1A9",
    "name": "Rydygiera 13",
    "lat": 51.11846798512915,
    "lng": 17.034029206645982,
    "address": "Rydygiera 13",
    "categoryIds": [
      "5A6A547F"
    ]
  },
  {
    "id": "299E41DC",
    "name": "Wędkarzy 14",
    "lat": 51.16647265657767,
    "lng": 16.964846989524858,
    "address": "Wędkarzy 14",
    "categoryIds": [
      "5A6A547F"
    ]
  },
  {
    "id": "81897F32",
    "name": "Dźwirzyńska 36",
    "lat": 51.128876852828746,
    "lng": 16.948228022468584,
    "address": "Dźwirzyńska 36",
    "categoryIds": [
      "5A6A547F"
    ]
  },
  {
    "id": "3F65B0E7",
    "name": "Sarbinowska 49",
    "lat": 51.128948391999636,
    "lng": 16.947401902091997,
    "address": "Sarbinowska 49",
    "categoryIds": [
      "5A6A547F"
    ]
  },
  {
    "id": "6F1E06D9",
    "name": "Fabryczna 10",
    "lat": 51.11192988920894,
    "lng": 16.991363307846086,
    "address": "Fabryczna 10",
    "categoryIds": [
      "5A6A547F"
    ]
  },
  {
    "id": "C5AF565D",
    "name": "Lubska/Lutyńska",
    "lat": 51.14823383437901,
    "lng": 16.83168067635347,
    "address": "Lubska/Lutyńska",
    "categoryIds": [
      "5A6A547F"
    ]
  },
  {
    "id": "9746E513",
    "name": "Blacharska 8A",
    "lat": 51.08178004980603,
    "lng": 16.989909550560014,
    "address": "Blacharska 8A",
    "categoryIds": [
      "5A6A547F"
    ]
  },
  {
    "id": "095AA1EF",
    "name": "Zwycięska 44",
    "lat": 51.05702637586574,
    "lng": 17.00862131120016,
    "address": "Zwycięska 44",
    "categoryIds": [
      "5A6A547F"
    ]
  },
  {
    "id": "48897659",
    "name": "Worcella 12",
    "lat": 51.10448816470753,
    "lng": 17.044106265914934,
    "address": "Worcella 12",
    "categoryIds": [
      "5A6A547F"
    ]
  },
  {
    "id": "8AC94557",
    "name": "Przestrzenna 19",
    "lat": 51.089436019324424,
    "lng": 17.0366980046158,
    "address": "Przestrzenna 19",
    "categoryIds": [
      "5A6A547F",
      "E4060C87"
    ]
  },
  {
    "id": "8E5376F4",
    "name": "Zemska 18",
    "lat": 51.11641219632397,
    "lng": 16.94894417227556,
    "address": "Zemska 18",
    "categoryIds": [
      "5A6A547F"
    ]
  },
  {
    "id": "F764E39C",
    "name": "Zatorska 106-126",
    "lat": 51.16115921171248,
    "lng": 17.137152096641557,
    "address": "Zatorska 106-126",
    "categoryIds": [
      "5A6A547F"
    ]
  },
  {
    "id": "291938AD",
    "name": "Zapolskiej 4",
    "lat": 51.10104391967805,
    "lng": 17.027052780998247,
    "address": "Zapolskiej 4",
    "categoryIds": [
      "5A6A547F"
    ]
  },
  {
    "id": "935052C1",
    "name": "Ułańska 62",
    "lat": 51.05305129026504,
    "lng": 17.01632260383417,
    "address": "Ułańska 62",
    "categoryIds": [
      "5A6A547F"
    ]
  },
  {
    "id": "235C8E11",
    "name": "Wiedeńska 3",
    "lat": 51.158864771549574,
    "lng": 17.13419496120264,
    "address": "Wiedeńska 3",
    "categoryIds": [
      "5A6A547F"
    ]
  },
  {
    "id": "42239754",
    "name": "Tomaszowska 3",
    "lat": 51.09052433112682,
    "lng": 17.03856213988115,
    "address": "Tomaszowska 3",
    "categoryIds": [
      "5A6A547F"
    ]
  },
  {
    "id": "33F0546A",
    "name": "Tomaszowska 26",
    "lat": 51.088137087350106,
    "lng": 17.039074441802995,
    "address": "Tomaszowska 26",
    "categoryIds": [
      "5A6A547F"
    ]
  },
  {
    "id": "78AE2F46",
    "name": "Ślężna 158",
    "lat": 51.07849251384013,
    "lng": 17.02047600449373,
    "address": "Ślężna 158",
    "categoryIds": [
      "5A6A547F"
    ]
  },
  {
    "id": "01129F25",
    "name": "Tyrmanda 19",
    "lat": 51.10192816354584,
    "lng": 16.949330410373705,
    "address": "Tyrmanda 19",
    "categoryIds": [
      "5A6A547F"
    ]
  },
  {
    "id": "8E8134D6",
    "name": "Sudecka 103a",
    "lat": 51.087282063579586,
    "lng": 17.01621799768259,
    "address": "Sudecka 103a",
    "categoryIds": [
      "5A6A547F"
    ]
  },
  {
    "id": "54B8EA65",
    "name": "Sztabowa 18",
    "lat": 51.09116618722692,
    "lng": 17.004541000736253,
    "address": "Sztabowa 18",
    "categoryIds": [
      "5A6A547F"
    ]
  },
  {
    "id": "6081F206",
    "name": "Rybnicka 39",
    "lat": 51.080711752618434,
    "lng": 17.08415164650728,
    "address": "Rybnicka 39",
    "categoryIds": [
      "5A6A547F"
    ]
  },
  {
    "id": "866BFA01",
    "name": "Starograniczna 32",
    "lat": 51.12373247515413,
    "lng": 16.99951185883333,
    "address": "Starograniczna 32",
    "categoryIds": [
      "5A6A547F"
    ]
  },
  {
    "id": "2012A673",
    "name": "Sołtysowicka 6-12",
    "lat": 51.13922447371684,
    "lng": 17.06842853726198,
    "address": "Sołtysowicka 6-12",
    "categoryIds": [
      "5A6A547F"
    ]
  },
  {
    "id": "0A976A5D",
    "name": "Rogowska 162",
    "lat": 51.1123323380044,
    "lng": 16.951100668323534,
    "address": "Rogowska 162",
    "categoryIds": [
      "5A6A547F",
      "E4060C87"
    ]
  },
  {
    "id": "3DF8896F",
    "name": "Powstańców Śląskich 176-180",
    "lat": 51.08292751504651,
    "lng": 17.011039993179338,
    "address": "Powstańców Śląskich 176-180",
    "categoryIds": [
      "5A6A547F"
    ]
  },
  {
    "id": "28623EBE",
    "name": "Poranna 42-50",
    "lat": 51.072405490303645,
    "lng": 16.99265345038225,
    "address": "Poranna 42-50",
    "categoryIds": [
      "5A6A547F"
    ]
  },
  {
    "id": "828BEBFC",
    "name": "Poświęcka 17",
    "lat": 51.15713209081904,
    "lng": 17.036070367706316,
    "address": "Poświęcka 17",
    "categoryIds": [
      "5A6A547F"
    ]
  },
  {
    "id": "323388E5",
    "name": "Poleska 33",
    "lat": 51.14377817312708,
    "lng": 17.12651177347948,
    "address": "Poleska 33",
    "categoryIds": [
      "5A6A547F"
    ]
  },
  {
    "id": "9E2B921D",
    "name": "Pleszewska 32",
    "lat": 51.15620179946312,
    "lng": 17.03745975197603,
    "address": "Pleszewska 32",
    "categoryIds": [
      "5A6A547F"
    ]
  },
  {
    "id": "DFE91F7C",
    "name": "Pleszewska 2",
    "lat": 51.15465071140753,
    "lng": 17.041284582031267,
    "address": "Pleszewska 2",
    "categoryIds": [
      "5A6A547F"
    ]
  },
  {
    "id": "0D13A1A7",
    "name": "Piwnika Ponurego 52",
    "lat": 51.149209714843224,
    "lng": 17.109943768394487,
    "address": "Piwnika Ponurego 52",
    "categoryIds": [
      "5A6A547F"
    ]
  },
  {
    "id": "280E133B",
    "name": "Perkusyjna",
    "lat": 51.103142497561144,
    "lng": 17.160717985046404,
    "address": "Perkusyjna",
    "categoryIds": [
      "5A6A547F"
    ]
  },
  {
    "id": "A8BCA10D",
    "name": "Parnickiego 6-10",
    "lat": 51.13992623716031,
    "lng": 17.029879829299944,
    "address": "Parnickiego 6-10",
    "categoryIds": [
      "5A6A547F"
    ]
  },
  {
    "id": "D3D6BF2C",
    "name": "Oporowska 6",
    "lat": 51.098634479845295,
    "lng": 17.003237447155016,
    "address": "Oporowska 6",
    "categoryIds": [
      "5A6A547F"
    ]
  },
  {
    "id": "A33A8E3C",
    "name": "Łubinowa 3b",
    "lat": 51.06072802815756,
    "lng": 17.0206503480797,
    "address": "Łubinowa 3b",
    "categoryIds": [
      "5A6A547F"
    ]
  },
  {
    "id": "77F35055",
    "name": "Obornicka 122",
    "lat": 51.145117608960454,
    "lng": 17.023189058912294,
    "address": "Obornicka 122",
    "categoryIds": [
      "5A6A547F"
    ]
  },
  {
    "id": "F592250B",
    "name": "Lechitów 25",
    "lat": 51.13054326591833,
    "lng": 17.11534037293245,
    "address": "Lechitów 25",
    "categoryIds": [
      "5A6A547F"
    ]
  },
  {
    "id": "BAFB8A44",
    "name": "Kościuszki 95-117",
    "lat": 51.10055547295663,
    "lng": 17.042276999366777,
    "address": "Kościuszki 95-117",
    "categoryIds": [
      "5A6A547F"
    ]
  },
  {
    "id": "C17F0783",
    "name": "Koreańska 1",
    "lat": 51.05848254332609,
    "lng": 17.086396655452745,
    "address": "Koreańska 1",
    "categoryIds": [
      "5A6A547F"
    ]
  },
  {
    "id": "D6C34B01",
    "name": "Kozanowska 52",
    "lat": 51.13763915587995,
    "lng": 16.97694643439104,
    "address": "Kozanowska 52",
    "categoryIds": [
      "5A6A547F",
      "E4060C87"
    ]
  },
  {
    "id": "3D9CE38E",
    "name": "Katowicka 45",
    "lat": 51.073002094448746,
    "lng": 17.084317943466203,
    "address": "Katowicka 45",
    "categoryIds": [
      "5A6A547F"
    ]
  },
  {
    "id": "71D97BBB",
    "name": "Kamienna 103-115",
    "lat": 51.08763502604685,
    "lng": 17.03931315840532,
    "address": "Kamienna 103-115",
    "categoryIds": [
      "5A6A547F"
    ]
  },
  {
    "id": "ADB922ED",
    "name": "Jeździecka 18-28",
    "lat": 51.06223844317253,
    "lng": 16.994667789352434,
    "address": "Jeździecka 18-28",
    "categoryIds": [
      "5A6A547F"
    ]
  },
  {
    "id": "5C4A0627",
    "name": "Jeziorowa 25",
    "lat": 51.163366072878134,
    "lng": 17.10202856959154,
    "address": "Jeziorowa 25",
    "categoryIds": [
      "5A6A547F"
    ]
  },
  {
    "id": "B25FDEA4",
    "name": "Gajowicka 78",
    "lat": 51.0956673529305,
    "lng": 17.013046285522478,
    "address": "Gajowicka 78",
    "categoryIds": [
      "5A6A547F"
    ]
  },
  {
    "id": "710EE790",
    "name": "Gitarowa 3",
    "lat": 51.1072619006705,
    "lng": 17.16264247001459,
    "address": "Gitarowa 3",
    "categoryIds": [
      "5A6A547F"
    ]
  },
  {
    "id": "18643887",
    "name": "Dożynkowa 15-19",
    "lat": 51.06860069396409,
    "lng": 16.98272257150461,
    "address": "Dożynkowa 15-19",
    "categoryIds": [
      "5A6A547F"
    ]
  },
  {
    "id": "A031445C",
    "name": "Chrzanowskiego 15-41",
    "lat": 51.14308319927053,
    "lng": 17.050921759021776,
    "address": "Chrzanowskiego 15-41",
    "categoryIds": [
      "5A6A547F"
    ]
  },
  {
    "id": "F18A8987",
    "name": "Chorwacka 45",
    "lat": 51.13992118854055,
    "lng": 17.02593698204805,
    "address": "Chorwacka 45",
    "categoryIds": [
      "5A6A547F"
    ]
  },
  {
    "id": "88EE9C47",
    "name": "Chocimska 2",
    "lat": 51.15845599933936,
    "lng": 17.133230707061784,
    "address": "Chocimska 2",
    "categoryIds": [
      "5A6A547F"
    ]
  },
  {
    "id": "097535CD",
    "name": "Wiśniowa Al. 4-14",
    "lat": 51.08631751040294,
    "lng": 17.01326086224367,
    "address": "Wiśniowa Al. 4-14",
    "categoryIds": [
      "5A6A547F"
    ]
  },
  {
    "id": "8A4FFA69",
    "name": "Łyżwiarzy (vis a vis 6b)",
    "lat": 51.16677539853752,
    "lng": 16.966488501441972,
    "address": "Łyżwiarzy (vis a vis 6b)",
    "categoryIds": [
      "5A6A547F"
    ]
  },
  {
    "id": "2B88F919",
    "name": "Gorlicka 54-58e",
    "lat": 51.14275001196764,
    "lng": 17.121834000957506,
    "address": "Gorlicka 54-58e",
    "categoryIds": [
      "5A6A547F"
    ]
  },
  {
    "id": "9BC0A5BF",
    "name": "Liskiego 3",
    "lat": 51.115499605558135,
    "lng": 17.06980451048662,
    "address": "Liskiego 3",
    "categoryIds": [
      "5A6A547F"
    ]
  },
  {
    "id": "ED3C5DA4",
    "name": "Jęczmienna 21",
    "lat": 51.10204269294293,
    "lng": 17.017166158569353,
    "address": "Jęczmienna 21",
    "categoryIds": [
      "5A6A547F"
    ]
  },
  {
    "id": "AF9D4AC0",
    "name": "Grabiszyńska 27",
    "lat": 51.103853230271795,
    "lng": 17.018686971080797,
    "address": "Grabiszyńska 27",
    "categoryIds": [
      "5A6A547F"
    ]
  },
  {
    "id": "D8791D66",
    "name": "Parnickiego 2-4",
    "lat": 51.13949878539749,
    "lng": 17.0290617555504,
    "address": "Parnickiego 2-4",
    "categoryIds": [
      "5A6A547F"
    ]
  },
  {
    "id": "ECA2435D",
    "name": "Włodkowica 35 - 37",
    "lat": 51.11040088861182,
    "lng": 17.02323331536104,
    "address": "Włodkowica 35 - 37",
    "categoryIds": [
      "5A6A547F"
    ]
  },
  {
    "id": "32B73FD0",
    "name": "Kazimierza Wielkiego 39",
    "lat": 51.10764249747559,
    "lng": 17.0301963299637,
    "address": "Kazimierza Wielkiego 39",
    "categoryIds": [
      "5A6A547F"
    ]
  },
  {
    "id": "9AB0271B",
    "name": "Nowowiejska 7",
    "lat": 51.124008562327276,
    "lng": 17.046474656475084,
    "address": "Nowowiejska 7",
    "categoryIds": [
      "5A6A547F"
    ]
  },
  {
    "id": "BB1EB980",
    "name": "Wiaduktowa Stadion \"Brochów\"",
    "lat": 51.06399996986182,
    "lng": 17.07368030251314,
    "address": "Wiaduktowa Stadion \"Brochów\"",
    "categoryIds": [
      "5A6A547F"
    ]
  },
  {
    "id": "DD8CE08C",
    "name": "Przestrzenna 23-29",
    "lat": 51.089259124119614,
    "lng": 17.037725290668504,
    "address": "Przestrzenna 23-29",
    "categoryIds": [
      "5A6A547F"
    ]
  },
  {
    "id": "02468226",
    "name": "Łódzka 1a",
    "lat": 51.09263602098435,
    "lng": 17.038422665012376,
    "address": "Łódzka 1a",
    "categoryIds": [
      "5A6A547F"
    ]
  },
  {
    "id": "6DD7B4B7",
    "name": "Gajowa 20",
    "lat": 51.0942321485709,
    "lng": 17.041129013908403,
    "address": "Gajowa 20",
    "categoryIds": [
      "5A6A547F"
    ]
  },
  {
    "id": "5733BB84",
    "name": "Zwycięska 9",
    "lat": 51.060500450195015,
    "lng": 17.00235768259813,
    "address": "Zwycięska 9",
    "categoryIds": [
      "5A6A547F"
    ]
  },
  {
    "id": "664FE502",
    "name": "Zgodna 18",
    "lat": 51.099190742307826,
    "lng": 17.052504932892816,
    "address": "Zgodna 18",
    "categoryIds": [
      "5A6A547F"
    ]
  },
  {
    "id": "3A30B289",
    "name": "Wesoła 13",
    "lat": 51.091108909091794,
    "lng": 17.035697540653246,
    "address": "Wesoła 13",
    "categoryIds": [
      "5A6A547F"
    ]
  },
  {
    "id": "9E8B5734",
    "name": "Wesoła 38-48",
    "lat": 51.09117292582637,
    "lng": 17.038218817127245,
    "address": "Wesoła 38-48",
    "categoryIds": [
      "5A6A547F"
    ]
  },
  {
    "id": "EE488718",
    "name": "Wapienna 16",
    "lat": 51.08952699373771,
    "lng": 17.04223408402254,
    "address": "Wapienna 16",
    "categoryIds": [
      "5A6A547F"
    ]
  },
  {
    "id": "C74FDE81",
    "name": "Vivaldiego 84-88",
    "lat": 51.05219730411717,
    "lng": 17.065268895042436,
    "address": "Vivaldiego 84-88",
    "categoryIds": [
      "5A6A547F"
    ]
  },
  {
    "id": "268853E5",
    "name": "Świątnicka 13",
    "lat": 51.0764096689968,
    "lng": 17.08791612685968,
    "address": "Świątnicka 13",
    "categoryIds": [
      "5A6A547F"
    ]
  },
  {
    "id": "FB68BC79",
    "name": "Śliczna 28",
    "lat": 51.08486685194478,
    "lng": 17.03883036078264,
    "address": "Śliczna 28",
    "categoryIds": [
      "5A6A547F"
    ]
  },
  {
    "id": "0A7FD90F",
    "name": "Ślężna 201",
    "lat": 51.0762276683912,
    "lng": 17.017284175766008,
    "address": "Ślężna 201",
    "categoryIds": [
      "5A6A547F"
    ]
  },
  {
    "id": "3A82E7B1",
    "name": "Szybka 1a",
    "lat": 51.10165026015272,
    "lng": 17.054566881073015,
    "address": "Szybka 1a",
    "categoryIds": [
      "5A6A547F"
    ]
  },
  {
    "id": "6A3A4832",
    "name": "Sowia 2-6",
    "lat": 51.07329365243364,
    "lng": 17.005101582420366,
    "address": "Sowia 2-6",
    "categoryIds": [
      "5A6A547F"
    ]
  },
  {
    "id": "D0B77DD0",
    "name": "Skwerowa 9",
    "lat": 51.09693406906428,
    "lng": 17.03086420000841,
    "address": "Skwerowa 9",
    "categoryIds": [
      "5A6A547F"
    ]
  },
  {
    "id": "9FCF6541",
    "name": "Sernicka 5-14",
    "lat": 51.089410748622306,
    "lng": 17.04805715979387,
    "address": "Sernicka 5-14",
    "categoryIds": [
      "5A6A547F"
    ]
  },
  {
    "id": "E300DE2B",
    "name": "Semaforowa 28",
    "lat": 51.06030827237767,
    "lng": 17.0795087427025,
    "address": "Semaforowa 28",
    "categoryIds": [
      "5A6A547F"
    ]
  },
  {
    "id": "FD0C4FA3",
    "name": "Radosna 36",
    "lat": 51.09484531644713,
    "lng": 17.026097914588945,
    "address": "Radosna 36",
    "categoryIds": [
      "5A6A547F"
    ]
  },
  {
    "id": "A9C9CC69",
    "name": "Przyjaźni 52-64A",
    "lat": 51.06597381151774,
    "lng": 16.99101998509218,
    "address": "Przyjaźni 52-64A",
    "categoryIds": [
      "5A6A547F"
    ]
  },
  {
    "id": "54563CD6",
    "name": "Przyjaźni 55",
    "lat": 51.06892177524103,
    "lng": 17.000726899517076,
    "address": "Przyjaźni 55",
    "categoryIds": [
      "5A6A547F"
    ]
  },
  {
    "id": "C8B62701",
    "name": "Powstańców Śląskich 162",
    "lat": 51.084942671457895,
    "lng": 17.01140745581438,
    "address": "Powstańców Śląskich 162",
    "categoryIds": [
      "5A6A547F"
    ]
  },
  {
    "id": "A07813E6",
    "name": "Polna / Chińska 2c",
    "lat": 51.05968958924945,
    "lng": 17.08298622669031,
    "address": "Polna / Chińska 2c",
    "categoryIds": [
      "5A6A547F"
    ]
  },
  {
    "id": "02BFA534",
    "name": "Piławska 17",
    "lat": 51.07269873737004,
    "lng": 17.042472800624864,
    "address": "Piławska 17",
    "categoryIds": [
      "5A6A547F"
    ]
  },
  {
    "id": "6153BBEC",
    "name": "Orzechowa\t41",
    "lat": 51.079407520402,
    "lng": 17.039731583011644,
    "address": "Orzechowa\t41",
    "categoryIds": [
      "5A6A547F"
    ]
  },
  {
    "id": "43CBF583",
    "name": "Orzechowa\t62",
    "lat": 51.07928450952297,
    "lng": 17.042802712333696,
    "address": "Orzechowa\t62",
    "categoryIds": [
      "5A6A547F"
    ]
  },
  {
    "id": "ACE9CEF3",
    "name": "Opolska 37",
    "lat": 51.07913790708931,
    "lng": 17.081407746685045,
    "address": "Opolska 37",
    "categoryIds": [
      "5A6A547F"
    ]
  },
  {
    "id": "3D7CC0FC",
    "name": "Kościuszki 180",
    "lat": 51.09808284278473,
    "lng": 17.05422892273714,
    "address": "Kościuszki 180",
    "categoryIds": [
      "5A6A547F"
    ]
  },
  {
    "id": "F1329DD0",
    "name": "Hallera 3-5",
    "lat": 51.08669996446209,
    "lng": 17.011351129425066,
    "address": "Hallera 3-5",
    "categoryIds": [
      "5A6A547F"
    ]
  },
  {
    "id": "C1E834DC",
    "name": "Gajowa 74",
    "lat": 51.088474038188714,
    "lng": 17.040608665359514,
    "address": "Gajowa 74",
    "categoryIds": [
      "5A6A547F"
    ]
  },
  {
    "id": "BB57AC18",
    "name": "Dąbrowskiego 27",
    "lat": 51.10059589632946,
    "lng": 17.04133017958452,
    "address": "Dąbrowskiego 27",
    "categoryIds": [
      "5A6A547F"
    ]
  },
  {
    "id": "67DFA745",
    "name": "Chorzowska 19",
    "lat": 51.07595466614042,
    "lng": 17.082346519840257,
    "address": "Chorzowska 19",
    "categoryIds": [
      "5A6A547F"
    ]
  },
  {
    "id": "360D8C55",
    "name": "Bursztynowa 25-27",
    "lat": 51.047772847346764,
    "lng": 17.021532794845598,
    "address": "Bursztynowa 25-27",
    "categoryIds": [
      "5A6A547F"
    ]
  },
  {
    "id": "9A578E68",
    "name": "Borowska 99",
    "lat": 51.09093707426075,
    "lng": 17.03222407997896,
    "address": "Borowska 99",
    "categoryIds": [
      "5A6A547F"
    ]
  },
  {
    "id": "585D6C91",
    "name": "Agrestowa 69",
    "lat": 51.06618282141908,
    "lng": 17.017176887405412,
    "address": "Agrestowa 69",
    "categoryIds": [
      "5A6A547F"
    ]
  },
  {
    "id": "29CBCF88",
    "name": "Grudziądzka 74",
    "lat": 51.136854891474215,
    "lng": 17.072784444702165,
    "address": "Grudziądzka 74",
    "categoryIds": [
      "5A6A547F"
    ]
  },
  {
    "id": "6AAEA228",
    "name": "Swojczycka 118",
    "lat": 51.1149506954202,
    "lng": 17.127952119720476,
    "address": "Swojczycka 118",
    "categoryIds": [
      "5A6A547F"
    ]
  },
  {
    "id": "82E215E1",
    "name": "Kubali 10-16",
    "lat": 51.15603693574725,
    "lng": 17.037304183853166,
    "address": "Kubali 10-16",
    "categoryIds": [
      "5A6A547F"
    ]
  },
  {
    "id": "1B487899",
    "name": "Żmigrodzka 141",
    "lat": 51.14826412063473,
    "lng": 17.0301963299637,
    "address": "Żmigrodzka 141",
    "categoryIds": [
      "5A6A547F"
    ]
  },
  {
    "id": "FD185960",
    "name": "Obornicka 98-106",
    "lat": 51.14150811083331,
    "lng": 17.024531504524248,
    "address": "Obornicka 98-106",
    "categoryIds": [
      "5A6A547F"
    ]
  },
  {
    "id": "551BB1EE",
    "name": "Romanowskiego 20",
    "lat": 51.14095277837778,
    "lng": 17.0370037764435,
    "address": "Romanowskiego 20",
    "categoryIds": [
      "5A6A547F"
    ]
  },
  {
    "id": "D9337A8C",
    "name": "Gorlicka 63-73",
    "lat": 51.142825736565776,
    "lng": 17.121793767822282,
    "address": "Gorlicka 63-73",
    "categoryIds": [
      "5A6A547F"
    ]
  },
  {
    "id": "12DC1EB9",
    "name": "Łąka mazurska 8",
    "lat": 51.130763766580074,
    "lng": 17.06420137585451,
    "address": "Łąka mazurska 8",
    "categoryIds": [
      "5A6A547F"
    ]
  },
  {
    "id": "3480555E",
    "name": "Kamieńskiego 190 J-K",
    "lat": 51.15421666658439,
    "lng": 17.043459853542345,
    "address": "Kamieńskiego 190 J-K",
    "categoryIds": [
      "5A6A547F"
    ]
  },
  {
    "id": "2D04A105",
    "name": "Stoczniowa 4a",
    "lat": 51.16291697173116,
    "lng": 17.127646347892778,
    "address": "Stoczniowa 4a",
    "categoryIds": [
      "5A6A547F"
    ]
  },
  {
    "id": "7EEA8E89",
    "name": "Pawłowicka 87",
    "lat": 51.17156518464611,
    "lng": 17.11615040005495,
    "address": "Pawłowicka 87",
    "categoryIds": [
      "5A6A547F"
    ]
  },
  {
    "id": "D8B62732",
    "name": "Litewska 20",
    "lat": 51.14302430270003,
    "lng": 17.130017420661943,
    "address": "Litewska 20",
    "categoryIds": [
      "5A6A547F"
    ]
  },
  {
    "id": "51A34188",
    "name": "Krzywoustego 325",
    "lat": 51.14643344902874,
    "lng": 17.11509360970308,
    "address": "Krzywoustego 325",
    "categoryIds": [
      "5A6A547F"
    ]
  },
  {
    "id": "6085621C",
    "name": "Korzeniowskiego 7",
    "lat": 51.13025038554882,
    "lng": 17.03524961174776,
    "address": "Korzeniowskiego 7",
    "categoryIds": [
      "5A6A547F"
    ]
  },
  {
    "id": "5BFD7C35",
    "name": "Kiełczowska 155",
    "lat": 51.14512770506281,
    "lng": 17.139710924041765,
    "address": "Kiełczowska 155",
    "categoryIds": [
      "5A6A547F"
    ]
  },
  {
    "id": "EDDCFF62",
    "name": "Górnickiego 4",
    "lat": 51.115597263733754,
    "lng": 17.054861924064653,
    "address": "Górnickiego 4",
    "categoryIds": [
      "5A6A547F"
    ]
  },
  {
    "id": "73C93D35",
    "name": "Smoluchowskiego / Wybrzeże Wyspiańskiego",
    "lat": 51.1072383237741,
    "lng": 17.06690504254152,
    "address": "Smoluchowskiego / Wybrzeże Wyspiańskiego",
    "categoryIds": [
      "5A6A547F"
    ]
  },
  {
    "id": "8915C737",
    "name": "Starogajowa/Kosmonautów",
    "lat": 51.14296708881673,
    "lng": 16.899009487045305,
    "address": "Starogajowa/Kosmonautów",
    "categoryIds": [
      "5A6A547F"
    ]
  },
  {
    "id": "55EC8027",
    "name": "Reszelska 1-7",
    "lat": 51.152032921771735,
    "lng": 16.932161590469377,
    "address": "Reszelska 1-7",
    "categoryIds": [
      "5A6A547F"
    ]
  },
  {
    "id": "AD0276A0",
    "name": "Kamiennogórska/Halicka",
    "lat": 51.137635789966744,
    "lng": 16.898483774078386,
    "address": "Kamiennogórska/Halicka",
    "categoryIds": [
      "5A6A547F"
    ]
  },
  {
    "id": "5917562C",
    "name": "Złotostocka 24",
    "lat": 51.078179082017044,
    "lng": 17.06047310532381,
    "address": "Złotostocka 24",
    "categoryIds": [
      "5A6A547F"
    ]
  },
  {
    "id": "96B767F9",
    "name": "Wielka 53",
    "lat": 51.092173596947866,
    "lng": 17.024536868942278,
    "address": "Wielka 53",
    "categoryIds": [
      "5A6A547F"
    ]
  },
  {
    "id": "E5FABDF7",
    "name": "Ślężna 33",
    "lat": 51.08917825751489,
    "lng": 17.02768578232576,
    "address": "Ślężna 33",
    "categoryIds": [
      "5A6A547F"
    ]
  },
  {
    "id": "7BCAF013",
    "name": "Powstańców Śląskich 88",
    "lat": 51.09379079742976,
    "lng": 17.021672269714372,
    "address": "Powstańców Śląskich 88",
    "categoryIds": [
      "5A6A547F"
    ]
  },
  {
    "id": "8C5E45DB",
    "name": "Piękna 64a-64h, 64j-64k",
    "lat": 51.08590641088347,
    "lng": 17.05692722500612,
    "address": "Piękna 64a-64h, 64j-64k",
    "categoryIds": [
      "5A6A547F"
    ]
  },
  {
    "id": "8C367168",
    "name": "Orłowicza 14",
    "lat": 51.077933053399704,
    "lng": 17.049095174682634,
    "address": "Orłowicza 14",
    "categoryIds": [
      "5A6A547F"
    ]
  },
  {
    "id": "B4CF29C9",
    "name": "Masztalerza 9",
    "lat": 51.05724512000785,
    "lng": 17.015293976676958,
    "address": "Masztalerza 9",
    "categoryIds": [
      "5A6A547F"
    ]
  },
  {
    "id": "CAE6EFEC",
    "name": "Księska 23",
    "lat": 51.07611981584263,
    "lng": 17.091259500396745,
    "address": "Księska 23",
    "categoryIds": [
      "5A6A547F"
    ]
  },
  {
    "id": "8EA294C7",
    "name": "Kościelna 19",
    "lat": 51.06437586592222,
    "lng": 16.979207536590593,
    "address": "Kościelna 19",
    "categoryIds": [
      "5A6A547F"
    ]
  },
  {
    "id": "52AEF040",
    "name": "Komandorska 37",
    "lat": 51.097496668558136,
    "lng": 17.028774759185808,
    "address": "Komandorska 37",
    "categoryIds": [
      "5A6A547F"
    ]
  },
  {
    "id": "CBB92DC9",
    "name": "Jastrzębia 19",
    "lat": 51.08459895533658,
    "lng": 17.009355565917986,
    "address": "Jastrzębia 19",
    "categoryIds": [
      "5A6A547F"
    ]
  },
  {
    "id": "96A7CA70",
    "name": "Jantarowa 12-18",
    "lat": 51.09267223979381,
    "lng": 17.01352908314516,
    "address": "Jantarowa 12-18",
    "categoryIds": [
      "5A6A547F"
    ]
  },
  {
    "id": "5EF8E098",
    "name": "Gazowa 16",
    "lat": 51.07778139127144,
    "lng": 17.06345572174837,
    "address": "Gazowa 16",
    "categoryIds": [
      "5A6A547F"
    ]
  },
  {
    "id": "C60F06B3",
    "name": "Gajowicka 144",
    "lat": 51.088790769738765,
    "lng": 17.006909391296404,
    "address": "Gajowicka 144",
    "categoryIds": [
      "5A6A547F"
    ]
  },
  {
    "id": "F64E2365",
    "name": "Czekoladowa 30-32",
    "lat": 51.06360721421511,
    "lng": 16.97678281964113,
    "address": "Czekoladowa 30-32",
    "categoryIds": [
      "5A6A547F"
    ]
  },
  {
    "id": "400EA659",
    "name": "Ciepła 15-15a",
    "lat": 51.092126427751666,
    "lng": 17.035528561485307,
    "address": "Ciepła 15-15a",
    "categoryIds": [
      "5A6A547F"
    ]
  },
  {
    "id": "772390D8",
    "name": "Bardzka 2/4",
    "lat": 51.08459895533661,
    "lng": 17.049266836059587,
    "address": "Bardzka 2/4",
    "categoryIds": [
      "5A6A547F"
    ]
  },
  {
    "id": "01CBB331",
    "name": "Armii Krajowej 34",
    "lat": 51.08362844897252,
    "lng": 17.042808076751726,
    "address": "Armii Krajowej 34",
    "categoryIds": [
      "5A6A547F"
    ]
  },
  {
    "id": "FCBEC821",
    "name": "Chrobrego 8",
    "lat": 51.12118700835663,
    "lng": 17.034911653411882,
    "address": "Chrobrego 8",
    "categoryIds": [
      "5A6A547F"
    ]
  },
  {
    "id": "4048FFF8",
    "name": "Żytnia 1",
    "lat": 51.10172099935675,
    "lng": 17.014789721382158,
    "address": "Żytnia 1",
    "categoryIds": [
      "5A6A547F"
    ]
  },
  {
    "id": "0BA6F28C",
    "name": "Żeromskiego 60",
    "lat": 51.12475600956365,
    "lng": 17.049803277862566,
    "address": "Żeromskiego 60",
    "categoryIds": [
      "5A6A547F"
    ]
  },
  {
    "id": "618CE7AA",
    "name": "Żeromskiego 19",
    "lat": 51.12151361709911,
    "lng": 17.0469815939789,
    "address": "Żeromskiego 19",
    "categoryIds": [
      "5A6A547F"
    ]
  },
  {
    "id": "FE175B35",
    "name": "Wojciecha z Brudzewa 10",
    "lat": 51.11830130295799,
    "lng": 17.073068758857744,
    "address": "Wojciecha z Brudzewa 10",
    "categoryIds": [
      "5A6A547F"
    ]
  },
  {
    "id": "1E1DD439",
    "name": "Wittiga 9/ Wiwulskiego 1",
    "lat": 51.101973638487465,
    "lng": 17.084773918998735,
    "address": "Wittiga 9/ Wiwulskiego 1",
    "categoryIds": [
      "5A6A547F"
    ]
  },
  {
    "id": "65DD6BE8",
    "name": "Św. Macieja 15-18",
    "lat": 51.120129722983414,
    "lng": 17.035094043624895,
    "address": "Św. Macieja 15-18",
    "categoryIds": [
      "5A6A547F"
    ]
  },
  {
    "id": "16236C6B",
    "name": "Szewska 27-31",
    "lat": 51.1116032127142,
    "lng": 17.035507103813188,
    "address": "Szewska 27-31",
    "categoryIds": [
      "5A6A547F"
    ]
  },
  {
    "id": "09082BA7",
    "name": "Stein 12",
    "lat": 51.122075917462176,
    "lng": 17.050398728263872,
    "address": "Stein 12",
    "categoryIds": [
      "5A6A547F"
    ]
  },
  {
    "id": "62A36707",
    "name": "Pomorska 32",
    "lat": 51.120129722983364,
    "lng": 17.030362626922624,
    "address": "Pomorska 32",
    "categoryIds": [
      "5A6A547F"
    ]
  },
  {
    "id": "2F9DC387",
    "name": "Pautscha 5/7",
    "lat": 51.10100012811362,
    "lng": 17.099799653900163,
    "address": "Pautscha 5/7",
    "categoryIds": [
      "5A6A547F"
    ]
  },
  {
    "id": "18744CEA",
    "name": "Nowowiejska 31-33",
    "lat": 51.12301531417709,
    "lng": 17.049583336723344,
    "address": "Nowowiejska 31-33",
    "categoryIds": [
      "5A6A547F"
    ]
  },
  {
    "id": "12D26091",
    "name": "Lubińska 2-4",
    "lat": 51.11460046713944,
    "lng": 17.004323741806047,
    "address": "Lubińska 2-4",
    "categoryIds": [
      "5A6A547F"
    ]
  },
  {
    "id": "9EB7E15D",
    "name": "Kilińskiego 22-34",
    "lat": 51.11804538572679,
    "lng": 17.04042091072847,
    "address": "Kilińskiego 22-34",
    "categoryIds": [
      "5A6A547F"
    ]
  },
  {
    "id": "09FF43A0",
    "name": "Grabiszyńska 43",
    "lat": 51.10330418179197,
    "lng": 17.016114732635515,
    "address": "Grabiszyńska 43",
    "categoryIds": [
      "5A6A547F"
    ]
  },
  {
    "id": "083530A9",
    "name": "Chrobrego 12/14",
    "lat": 51.12173584440787,
    "lng": 17.034777542961137,
    "address": "Chrobrego 12/14",
    "categoryIds": [
      "5A6A547F"
    ]
  },
  {
    "id": "1DC2902E",
    "name": "Benedyktyńska 18",
    "lat": 51.11545582768828,
    "lng": 17.053011199844377,
    "address": "Benedyktyńska 18",
    "categoryIds": [
      "5A6A547F"
    ]
  },
  {
    "id": "A082BBF5",
    "name": "Barlickiego 32",
    "lat": 51.12337894648653,
    "lng": 17.050350448501604,
    "address": "Barlickiego 32",
    "categoryIds": [
      "5A6A547F"
    ]
  },
  {
    "id": "C5E3F27D",
    "name": "Żelazna 38-44",
    "lat": 51.09746971784032,
    "lng": 17.007574579132097,
    "address": "Żelazna 38-44",
    "categoryIds": [
      "5A6A547F"
    ]
  },
  {
    "id": "62C4E3A4",
    "name": "Złotnicka 4-10",
    "lat": 51.1434651837748,
    "lng": 16.88966467083742,
    "address": "Złotnicka 4-10",
    "categoryIds": [
      "5A6A547F"
    ]
  },
  {
    "id": "205AD5A2",
    "name": "Wojrowicka 4a",
    "lat": 51.11428391237093,
    "lng": 16.960989972961443,
    "address": "Wojrowicka 4a",
    "categoryIds": [
      "5A6A547F"
    ]
  },
  {
    "id": "78970AAF",
    "name": "Tyrmanda 42",
    "lat": 51.10046115161597,
    "lng": 16.952020666015642,
    "address": "Tyrmanda 42",
    "categoryIds": [
      "5A6A547F"
    ]
  },
  {
    "id": "081117DA",
    "name": "Tyrmanda 33",
    "lat": 51.10139088214524,
    "lng": 16.95084049404909,
    "address": "Tyrmanda 33",
    "categoryIds": [
      "5A6A547F"
    ]
  },
  {
    "id": "91FF861C",
    "name": "Tyrmanda 40",
    "lat": 51.100865384578306,
    "lng": 16.951677343261736,
    "address": "Tyrmanda 40",
    "categoryIds": [
      "5A6A547F"
    ]
  },
  {
    "id": "B0980E73",
    "name": "Tyrmanda 2",
    "lat": 51.10252270277055,
    "lng": 16.947042486084,
    "address": "Tyrmanda 2",
    "categoryIds": [
      "5A6A547F"
    ]
  },
  {
    "id": "00F3EEE3",
    "name": "Tyrmanda 9",
    "lat": 51.10191637373888,
    "lng": 16.947900792968767,
    "address": "Tyrmanda 9",
    "categoryIds": [
      "5A6A547F"
    ]
  },
  {
    "id": "285B41A0",
    "name": "Tolkmicka 2-16",
    "lat": 51.15343268380448,
    "lng": 16.93357779682924,
    "address": "Tolkmicka 2-16",
    "categoryIds": [
      "5A6A547F"
    ]
  },
  {
    "id": "026EA748",
    "name": "Strzegomska 109",
    "lat": 51.1142435009678,
    "lng": 16.978456518066423,
    "address": "Strzegomska 109",
    "categoryIds": [
      "5A6A547F"
    ]
  },
  {
    "id": "11A26740",
    "name": "Stopnicka 9-17",
    "lat": 51.08997680904032,
    "lng": 17.0035405367737,
    "address": "Stopnicka 9-17",
    "categoryIds": [
      "5A6A547F"
    ]
  },
  {
    "id": "1DAF90F6",
    "name": "Stabłowicka 95",
    "lat": 51.164541788881465,
    "lng": 16.897775670898454,
    "address": "Stabłowicka 95",
    "categoryIds": [
      "5A6A547F"
    ]
  },
  {
    "id": "4EAE1532",
    "name": "Spiżowa 11-15",
    "lat": 51.10106749973404,
    "lng": 17.002102872741716,
    "address": "Spiżowa 11-15",
    "categoryIds": [
      "5A6A547F"
    ]
  },
  {
    "id": "07246FDD",
    "name": "Skwierzyńska 30-50",
    "lat": 51.09737539020414,
    "lng": 17.01253130139162,
    "address": "Skwierzyńska 30-50",
    "categoryIds": [
      "5A6A547F"
    ]
  },
  {
    "id": "4AC3E802",
    "name": "Różana 23",
    "lat": 51.094599376462355,
    "lng": 16.994163534057634,
    "address": "Różana 23",
    "categoryIds": [
      "5A6A547F"
    ]
  },
  {
    "id": "7CCF6D95",
    "name": "Różana 7",
    "lat": 51.09561008037045,
    "lng": 16.994142076385515,
    "address": "Różana 7",
    "categoryIds": [
      "5A6A547F"
    ]
  },
  {
    "id": "F76205B6",
    "name": "Rogowska 54",
    "lat": 51.119442811238926,
    "lng": 16.950733205688493,
    "address": "Rogowska 54",
    "categoryIds": [
      "5A6A547F"
    ]
  },
  {
    "id": "FE9029A8",
    "name": "Rogowska 176",
    "lat": 51.111872636794295,
    "lng": 16.95281459988405,
    "address": "Rogowska 176",
    "categoryIds": [
      "5A6A547F"
    ]
  },
  {
    "id": "3A2778CC",
    "name": "Reszelska 2-10",
    "lat": 51.15193197575285,
    "lng": 16.932966253173845,
    "address": "Reszelska 2-10",
    "categoryIds": [
      "5A6A547F"
    ]
  },
  {
    "id": "E1225CF5",
    "name": "Pretficza 49-53",
    "lat": 51.09229488894579,
    "lng": 17.00429155529787,
    "address": "Pretficza 49-53",
    "categoryIds": [
      "5A6A547F"
    ]
  },
  {
    "id": "49D81E16",
    "name": "Pilczycka 200-202",
    "lat": 51.144151738285466,
    "lng": 16.94882347286989,
    "address": "Pilczycka 200-202",
    "categoryIds": [
      "5A6A547F"
    ]
  },
  {
    "id": "91B2D61E",
    "name": "Papiernicza\t 9-10",
    "lat": 51.13611437208241,
    "lng": 16.953994771850603,
    "address": "Papiernicza 9-10",
    "categoryIds": [
      "5A6A547F"
    ]
  },
  {
    "id": "1EC0A5EF",
    "name": "Paniowicka 11-23",
    "lat": 51.14716707247209,
    "lng": 16.951741716278093,
    "address": "Paniowicka 11-23",
    "categoryIds": [
      "5A6A547F"
    ]
  },
  {
    "id": "3561D546",
    "name": "Niklowa 2-8",
    "lat": 51.09850730913717,
    "lng": 16.99978544415285,
    "address": "Niklowa 2-8",
    "categoryIds": [
      "5A6A547F"
    ]
  },
  {
    "id": "6B931EC7",
    "name": "Mińska 31",
    "lat": 51.10222627623754,
    "lng": 16.945883771789568,
    "address": "Mińska 31",
    "categoryIds": [
      "5A6A547F"
    ]
  },
  {
    "id": "D426D699",
    "name": "Maślicka 2",
    "lat": 51.146588251276434,
    "lng": 16.94832994641115,
    "address": "Maślicka 2",
    "categoryIds": [
      "5A6A547F"
    ]
  },
  {
    "id": "82AAE43E",
    "name": "Lubuska 78-84",
    "lat": 51.100703691817465,
    "lng": 17.008904954803484,
    "address": "Lubuska 78-84",
    "categoryIds": [
      "5A6A547F"
    ]
  },
  {
    "id": "A7238D34",
    "name": "Krucza 75-77a",
    "lat": 51.093858179555866,
    "lng": 16.999871274841325,
    "address": "Krucza 75-77a",
    "categoryIds": [
      "5A6A547F"
    ]
  },
  {
    "id": "34AEE3C3",
    "name": "Królewiecka 5e",
    "lat": 51.145511355317964,
    "lng": 16.947772046936052,
    "address": "Królewiecka 5e",
    "categoryIds": [
      "5A6A547F"
    ]
  },
  {
    "id": "8977D9C3",
    "name": "Królewiecka 101-113",
    "lat": 51.14833815362053,
    "lng": 16.931507131469743,
    "address": "Królewiecka 101-113",
    "categoryIds": [
      "5A6A547F"
    ]
  },
  {
    "id": "C5C50066",
    "name": "Królewiecka 51",
    "lat": 51.147012272165725,
    "lng": 16.934232255828874,
    "address": "Królewiecka 51",
    "categoryIds": [
      "5A6A547F"
    ]
  },
  {
    "id": "390879BC",
    "name": "Królewiecka 31-37",
    "lat": 51.14709976805485,
    "lng": 16.935240766418474,
    "address": "Królewiecka 31-37",
    "categoryIds": [
      "5A6A547F"
    ]
  },
  {
    "id": "22C6C18C",
    "name": "Komorowska 2",
    "lat": 51.111199073648855,
    "lng": 16.95631220043947,
    "address": "Komorowska 2",
    "categoryIds": [
      "5A6A547F"
    ]
  },
  {
    "id": "4C97E649",
    "name": "Kolbuszowska 3/7a",
    "lat": 51.093494314908575,
    "lng": 16.99776842297365,
    "address": "Kolbuszowska 3/7a",
    "categoryIds": [
      "5A6A547F"
    ]
  },
  {
    "id": "4A3BF92A",
    "name": "Kiemliczów 5",
    "lat": 51.12192103301521,
    "lng": 16.925670644653337,
    "address": "Kiemliczów 5",
    "categoryIds": [
      "5A6A547F"
    ]
  },
  {
    "id": "B9F20338",
    "name": "Jemiołowa/Żelazna 26-28/29-33",
    "lat": 51.09694417570237,
    "lng": 17.00901224316408,
    "address": "Jemiołowa/Żelazna 26-28/29-33",
    "categoryIds": [
      "5A6A547F"
    ]
  },
  {
    "id": "5647D66E",
    "name": "Jaworska 5",
    "lat": 51.11559052869377,
    "lng": 16.994120618713396,
    "address": "Jaworska 5",
    "categoryIds": [
      "5A6A547F"
    ]
  },
  {
    "id": "9B4E9770",
    "name": "Inżynierska 72a",
    "lat": 51.09377732099275,
    "lng": 16.983477613342302,
    "address": "Inżynierska 72a",
    "categoryIds": [
      "5A6A547F"
    ]
  },
  {
    "id": "48E65D8E",
    "name": "Inżynierska 40",
    "lat": 51.09481499514982,
    "lng": 16.989399930847185,
    "address": "Inżynierska 40",
    "categoryIds": [
      "5A6A547F"
    ]
  },
  {
    "id": "C14E8844",
    "name": "Inżynierska 20",
    "lat": 51.09424899395082,
    "lng": 16.991846105468767,
    "address": "Inżynierska 20",
    "categoryIds": [
      "5A6A547F"
    ]
  },
  {
    "id": "AB68E67C",
    "name": "Grabiszyńska 317-321",
    "lat": 51.09147279250855,
    "lng": 16.976353666198747,
    "address": "Grabiszyńska 317-321",
    "categoryIds": [
      "5A6A547F"
    ]
  },
  {
    "id": "A3893AEC",
    "name": "Gosławicka 1-9",
    "lat": 51.14680362745301,
    "lng": 16.950175306213396,
    "address": "Gosławicka 1-9",
    "categoryIds": [
      "5A6A547F"
    ]
  },
  {
    "id": "30D16D9A",
    "name": "Główna 102",
    "lat": 51.1628194136005,
    "lng": 16.896488210571306,
    "address": "Główna 102",
    "categoryIds": [
      "5A6A547F"
    ]
  },
  {
    "id": "1195C651",
    "name": "Główna 92/94",
    "lat": 51.163142363864544,
    "lng": 16.8981619089966,
    "address": "Główna 92/94",
    "categoryIds": [
      "5A6A547F"
    ]
  },
  {
    "id": "FB3A1D10",
    "name": "Słomińska 4",
    "lat": 51.09535403746978,
    "lng": 16.940004369628923,
    "address": "Słomińska 4",
    "categoryIds": [
      "5A6A547F"
    ]
  },
  {
    "id": "320DAED2",
    "name": "Bzowa 23",
    "lat": 51.09641862759088,
    "lng": 16.992918989074724,
    "address": "Bzowa 23",
    "categoryIds": [
      "5A6A547F"
    ]
  },
  {
    "id": "BEC75F3B",
    "name": "Bzowa 20",
    "lat": 51.09730801320332,
    "lng": 16.994163534057634,
    "address": "Bzowa 20",
    "categoryIds": [
      "5A6A547F"
    ]
  },
  {
    "id": "88923DAC",
    "name": "Bobrza 44",
    "lat": 51.12808907298266,
    "lng": 16.985687753570573,
    "address": "Bobrza 44",
    "categoryIds": [
      "5A6A547F"
    ]
  },
  {
    "id": "686E0FA1",
    "name": "Al. Pracy 13",
    "lat": 51.095192325433615,
    "lng": 16.98548390568544,
    "address": "Al. Pracy 13",
    "categoryIds": [
      "5A6A547F"
    ]
  },
  {
    "id": "54B11486",
    "name": "Gwarecka 7",
    "lat": 51.14127083323793,
    "lng": 16.959895631683366,
    "address": "Gwarecka 7",
    "categoryIds": [
      "5A6A547F"
    ]
  },
  {
    "id": "608A8652",
    "name": "Wojrowicka 40",
    "lat": 51.113893267326866,
    "lng": 16.9555611819153,
    "address": "Wojrowicka 40",
    "categoryIds": [
      "5A6A547F"
    ]
  },
  {
    "id": "1E808364",
    "name": "Rogowska 144",
    "lat": 51.114432087213395,
    "lng": 16.949016591918962,
    "address": "Rogowska 144",
    "categoryIds": [
      "5A6A547F"
    ]
  },